학교명,학교급구분,소재지지번주소,위도,경도
아산테크노중학교,중학교,충청남도 아산시 둔포면 석곡리 1782,36.92648648,127.0517466
동항초등학교,초등학교,부산광역시 남구 감만동 312,35.11429749,129.0825604
별가람초등학교,초등학교,경기도 남양주시 별내동 920,37.65404379,127.1243411
부산기계공업고등학교,고등학교,부산광역시 해운대구 우동 471 부산기계공업고등학교,35.16210158,129.154384
광사초등학교,초등학교,경기도 양주시 광사동 660,37.79113573,127.0837993
강내초등학교,초등학교,충청북도 청주시 흥덕구 강내면 다락리 348-1,36.59702511,127.356827
유어초등학교,초등학교,경상남도 창녕군 유어면 부곡리 481,35.50887408,128.4109906
상명대학교사범대학부속초등학교,초등학교,서울특별시 종로구 홍지동 56,37.60075792,126.9563523
부산산업과학고등학교,고등학교,부산광역시 강서구 봉림동 15,35.18841821,128.9034374
브니엘고등학교,고등학교,부산광역시 금정구 구서동 50-1,35.25554187,129.1035399
부곡중학교,중학교,부산광역시 금정구 부곡동 산 56-3,35.23086573,129.0959307
성동중학교,중학교,부산광역시 남구 문현동 791,35.14088553,129.0657423
한별중학교,중학교,경기도 남양주시 별내동 1055,37.64861577,127.1190463
동국대학교사범대학부속고등학교,고등학교,서울특별시 동대문구 장안동 328,37.57749539,127.0744645
수동중학교,중학교,경상남도 함양군 수동면 화산리 1010,35.52403298,127.7893568
서대전여자고등학교,고등학교,대전광역시 서구 도마동 420-3,36.32668138,127.3687101
갈매중학교,중학교,경기도 구리시 갈매동 382-5,37.63089738,127.1200522
청남중학교,중학교,충청남도 청양군 청남면 청소리 218-1,36.35490381,126.9509737
홍성중학교,중학교,충청남도 홍성군 홍성읍 고암리 560,36.59701095,126.6730677
영월중학교,중학교,강원도 영월군 영월읍 영흥리 716-1,37.19116763,128.4720494
봉래중학교,중학교,강원도 영월군 영월읍 덕포리 374,37.18181687,128.485479
옥동중학교,중학교,강원도 영월군 김삿갓면 옥동리 402,37.12816564,128.5705668
경안여자중학교,중학교,경상북도 안동시 금곡동 1,36.57245242,128.7233384
가조중학교,중학교,경상남도 거창군 가조면 마상리 321-1,35.71217412,128.014988
거창중학교고제분교장,중학교,경상남도 거창군 고제면 농산리 184,35.81381493,127.8734752
과천외국어고등학교,고등학교,경기도 과천시 중앙동 11,37.432386,126.9889526
광탄고등학교,고등학교,경기도 파주시 광탄면 신산리 232,37.78317499,126.8487861
거창대성중학교,중학교,경상남도 거창군 거창읍 가지리 324,35.69167811,127.9017335
동명초등학교,초등학교,경상북도 칠곡군 동명면 금암리 302-4,35.98698665,128.5545397
입암초등학교,초등학교,경상북도 영양군 입암면 신구리 272,36.5996457,129.0873689
춘천삼육초등학교,초등학교,강원도 춘천시 동면 장학리 568-1,37.91107706,127.7536795
삼산초등학교,초등학교,인천광역시 강화군 삼산면 석모리 249-2,37.70349622,126.3223472
내황초등학교,초등학교,울산광역시 중구 반구동 395,35.55182158,129.3489924
우정초등학교,초등학교,울산광역시 중구 우정동 707,35.56031926,129.3067156
함월초등학교,초등학교,울산광역시 중구 복산동 504,35.55916209,129.3292796
화진초등학교,초등학교,울산광역시 동구 방어동 75,35.49151745,129.4250661
계동초등학교,초등학교,경상남도 김해시 대청동 333-1,35.1846582,128.7948332
철암초등학교,초등학교,강원도 태백시 철암동 341-2,37.12223076,129.0422687
금천중학교,중학교,경상북도 청도군 금천면 동곡리 1000-1,35.68790759,128.8947636
이서중학교,중학교,경상북도 청도군 이서면 서원리 331-3,35.66225521,128.6696642
군산대성중학교,중학교,전라북도 군산시 임피면 읍내리 535-4,35.98885821,126.8489417
대병중학교,중학교,경상남도 합천군 대병면 회양리 904,35.51876806,128.0118653
동해상업고등학교,고등학교,강원도 동해시 발한동 620-3,37.54387441,129.0947482
삼척마이스터고등학교,고등학교,강원도 삼척시 근덕면 교가리 540,37.3844889,129.2252084
수곡초등학교,초등학교,충청북도 청주시 서원구 수곡동 779,36.6182434,127.4712585
구영중학교,중학교,울산광역시 울주군 범서읍 구영리 753-2,35.572425,129.2364704
동대전고등학교,고등학교,대전광역시 대덕구 중리동 234-3,36.35685403,127.4236575
대구대실초등학교,초등학교,대구광역시 달성군 다사읍 죽곡리 820,35.85310922,128.4680967
포천초등학교,초등학교,경기도 포천시 신읍동 133,37.89675855,127.1971839
상평초등학교공수전분교장,초등학교,강원도 양양군 서면 공수전리 31-6,38.0417294,128.5573098
냉천초등학교,초등학교,경기도 고양시 일산동구 마두동 830,37.6663969,126.7859717
대곡초등학교,초등학교,경기도 고양시 덕양구 대장동 226-2,37.6410069,126.8126151
주엽초등학교,초등학교,경기도 고양시 일산서구 주엽동 100 주엽초등학교,37.66714584,126.7617827
주전초등학교,초등학교,울산광역시 동구 주전동 277,35.55779975,129.4569073
녹수초등학교,초등학교,울산광역시 동구 서부동 257-10,35.53066082,129.4283312
남목초등학교,초등학교,울산광역시 동구 서부동 370,35.54211133,129.4247221
세종고등학교,고등학교,세종특별자치시 조치원읍 서창리 30-2,36.61052966,127.2994816
청담고등학교,고등학교,경기도 평택시 팽성읍 송화리 821 821,36.9627249,127.0614106
미로중학교,중학교,강원도 삼척시 미로면 하거노리 449,37.41078465,129.1043317
만송초등학교,초등학교,경기도 양주시 만송동 702,37.79738086,127.0850962
연곡초등학교,초등학교,경기도 양주시 백석읍 연곡리 13-3,37.80735292,126.9618484
봉래초등학교,초등학교,강원도 영월군 영월읍 덕포리 557,37.17669465,128.4759731
고양초등학교,초등학교,경기도 고양시 덕양구 고양동 236,37.7030317,126.8999337
내유초등학교,초등학교,경기도 고양시 덕양구 내유동 431-7,37.7153948,126.8518566
금일동초등학교,초등학교,전라남도 완도군 금일읍 월송리 250,34.34000424,127.0553522
학성여자중학교,중학교,울산광역시 중구 태화동 747-1,35.55542105,129.2912135
성안중학교,중학교,울산광역시 중구 성안동 519-8,35.57278036,129.3176359
울산강남중학교,중학교,울산광역시 남구 삼산동 1535-1,35.54592163,129.3411602
영천초등학교,초등학교,경상북도 영천시 금노동 504-1,35.96141983,128.9321647
대술초등학교,초등학교,충청남도 예산군 대술면 화천리 372-2,36.6571414,126.8948886
나룰초등학교,초등학교,경기도 하남시 덕풍동 803,37.54849096,127.2090086
여수해양과학고등학교,고등학교,전라남도 여수시 돌산읍 군내리 139,34.61507951,127.7266878
진장중학교,중학교,울산광역시 북구 진장동 687-1,35.56362477,129.3582917
예당중학교,중학교,경기도 화성시 석우동 61-1,37.20787069,127.0792785
군산금광초등학교,초등학교,전라북도 군산시 금광동 168,35.98232475,126.7057858
군산월명초등학교,초등학교,전라북도 군산시 송풍동 925-3,35.97843605,126.7002548
창원동중학교,중학교,경상남도 창원시 의창구 동읍 신방리 868,35.29113266,128.6753808
기성초등학교,초등학교,경상북도 울진군 기성면 척산리 194,36.7975846,129.4492083
노음초등학교,초등학교,경상북도 울진군 근남면 노음리 586,36.95842073,129.3914227
양진중학교,중학교,경기도 안성시 공도읍 진사리 135-8,36.98633597,127.1436938
일산국제컨벤션고등학교,고등학교,경기도 고양시 일산서구 주엽동 41,37.67258802,126.7721437
경기영상과학고등학교,고등학교,경기도 고양시 일산서구 주엽동 95,37.66531012,126.7620059
서진초등학교,초등학교,경상남도 진주시 평거동 800,35.16876595,128.0569216
서벽초등학교,초등학교,경상북도 봉화군 춘양면 서벽리 349-2,37.00842962,128.833596
삼방초등학교,초등학교,경상남도 김해시 삼방동 675,35.24878744,128.9077183
산이중학교,중학교,전라남도 해남군 산이면 초송리 527,34.64518504,126.448975
남외중학교,중학교,울산광역시 중구 남외동 502-1,35.56656979,129.3484476
유곡중학교,중학교,울산광역시 중구 태화동 196,35.55905445,129.299301
일산중학교,중학교,울산광역시 동구 일산동 437-3,35.50603526,129.4229189
화진중학교,중학교,울산광역시 동구 화정동 828,35.49693663,129.4221203
호남원예고등학교,고등학교,전라남도 나주시 금천면 원곡리 253-1,35.0369986,126.7507713
경북공업고등학교,고등학교,대구광역시 중구 남산동 2380-5,35.85818735,128.5838336
대구공업고등학교,고등학교,대구광역시 동구 신암동 811,35.88311916,128.6142042
대구서부공업고등학교,고등학교,대구광역시 서구 내당동 456-1,35.8572904,128.5483577
경북여자상업고등학교,고등학교,대구광역시 남구 대명동 1804-2,35.8551658,128.5883692
거제공업고등학교,고등학교,경상남도 거제시 고현동 920-2,34.88206751,128.614492
광영여자고등학교,고등학교,서울특별시 양천구 신월동 43-3,37.53757548,126.8232464
광주인성고등학교,고등학교,광주광역시 남구 송하동 492-28,35.10283513,126.8819879
재현고등학교,고등학교,서울특별시 노원구 중계동 129-2,37.660214,127.0796775
청구고등학교,고등학교,대구광역시 동구 신천동 850-6,35.86841193,128.6202639
상평초등학교현서분교장,초등학교,강원도 양양군 서면 서림리 74-1,37.98772697,128.5297859
배정고등학교,고등학교,부산광역시 남구 문현동 985-26,35.13272169,129.0679652
상평초등학교,초등학교,강원도 양양군 서면 상평리 18,38.07337312,128.5863074
인구초등학교,초등학교,강원도 양양군 현남면 인구리 27-2,37.96765264,128.7584842
인천만수고등학교,고등학교,인천광역시 남동구 만수동 605-5,37.44709898,126.7425368
인천남동고등학교,고등학교,인천광역시 남동구 논현동 588-1,37.40570279,126.7218959
외북초등학교,초등학교,경기도 포천시 신북면 계류리 54-3,37.94656256,127.1874841
부산디지털고등학교,고등학교,부산광역시 중구 영주동 446-2,35.10871851,129.0321157
부산영상예술고등학교,고등학교,부산광역시 영도구 신선동3가 71-1,35.0847953,129.0451593
영평초등학교,초등학교,경기도 포천시 영중면 영평리 240,38.01608841,127.2175359
모산초등학교,초등학교,강원도 강릉시 장현동 43-2,37.73139845,128.9015952
수도전기공업고등학교,고등학교,서울특별시 강남구 개포동 155,37.48609632,127.0638047
부산해사고등학교,고등학교,부산광역시 영도구 동삼동 1167,35.07390772,129.0782286
부산국제외국어고등학교,고등학교,부산광역시 해운대구 우동 1025-127,35.16566125,129.1447463
정신여자고등학교,고등학교,서울특별시 송파구 잠실동 50-4,37.50875542,127.0717962
동인고등학교,고등학교,부산광역시 동래구 사직동 981-90,35.1977784,129.050703
사직여자고등학교,고등학교,부산광역시 동래구 사직동 981-1,35.19665821,129.0520547
복주여자중학교,중학교,경상북도 안동시 당북동 333-1,36.56217669,128.7177013
풍산중학교,중학교,경상북도 안동시 풍산읍 안교리 320,36.58355604,128.5651305
영남고등학교,고등학교,대구광역시 달서구 상인동 70,35.82082239,128.5375711
경원고등학교,고등학교,대구광역시 달서구 용산동 6,35.86609057,128.5245091
송현여자고등학교,고등학교,대구광역시 달서구 송현동 540,35.83150384,128.545741
풍암고등학교,고등학교,광주광역시 서구 풍암동 1006,35.12252364,126.8676352
강화여자고등학교,고등학교,인천광역시 강화군 강화읍 관청리 794-1,37.75418046,126.478545
서울한남초등학교,초등학교,서울특별시 용산구 한남동 726-1,37.5393989,127.0049096
삼광고등학교,고등학교,경기도 파주시 적성면 식현리 284,37.94503767,126.885444
동두천고등학교,고등학교,경기도 동두천시 생연동 451,37.90490474,127.0589599
지구촌고등학교,고등학교,부산광역시 연제구 거제동 75-7,35.19405204,129.0783008
부산에너지과학고등학교,고등학교,부산광역시 사상구 덕포동 45-6,35.17266864,128.9928494
무거고등학교,고등학교,울산광역시 남구 무거동 1000,35.53677007,129.2503115
울산강남고등학교,고등학교,울산광역시 남구 신정동 341,35.54920333,129.3182887
울산제일고등학교,고등학교,울산광역시 남구 옥동 910-1,35.54228586,129.2681645
삼일여자고등학교,고등학교,울산광역시 남구 선암동 650-6,35.51635989,129.3171345
광명고등학교,고등학교,부산광역시 영도구 동삼동 226-118,35.08305177,129.0643817
양정고등학교,고등학교,부산광역시 부산진구 양정동 33-33,35.16917158,129.0741918
거제중학교,중학교,경상남도 거제시 아주동 295-8,34.86136835,128.6869533
동부중학교,중학교,경상남도 거제시 동부면 산양리 348,34.82047195,128.607622
송라중학교,중학교,경상북도 포항시 북구 송라면 광천리 184,36.22796784,129.3547085
다사고등학교,고등학교,대구광역시 달성군 다사읍 죽곡리 5-5,35.86201691,128.463011
달서고등학교,고등학교,대구광역시 달성군 하빈면 감문리 815,35.88547296,128.4228632
외포중학교,중학교,경상남도 거제시 장목면 외포리 261-1,34.94429221,128.7178281
남목고등학교,고등학교,울산광역시 동구 서부동 728,35.53813586,129.4182256
성서고등학교,고등학교,대구광역시 달서구 용산동 501-1,35.85969577,128.516043
인천신현초등학교,초등학교,인천광역시 서구 신현동 291,37.51431903,126.6702261
대전배울초등학교,초등학교,대전광역시 유성구 관평동 663,36.42187573,127.3838953
매천고등학교,고등학교,대구광역시 북구 태전동 1127,35.91164878,128.547427
성광고등학교,고등학교,대구광역시 북구 복현동 8-1 성광고등학교,35.90838694,128.6239184
덕현고등학교,고등학교,경기도 양주시 만송동 703,37.79823967,127.0843021
동남고등학교,고등학교,경기도 포천시 소흘읍 송우리 537-1,37.82790595,127.1350994
김해건설공업고등학교,고등학교,경상남도 김해시 구산동 180,35.24069183,128.8759904
김해생명과학고등학교,고등학교,경상남도 김해시 외동 743,35.23669075,128.8554676
밀성제일고등학교,고등학교,경상남도 밀양시 내이동 590-1,35.50268134,128.7505941
화정남초등학교,초등학교,광주광역시 서구 화정동 929-1,35.13810655,126.8721516
광주대성초등학교,초등학교,광주광역시 남구 서동 111,35.14419278,126.9053822
울산경의고등학교,고등학교,울산광역시 울주군 상북면 산전리 435,35.58879051,129.0934918
부일외국어고등학교,고등학교,부산광역시 사하구 감천동 634-61,35.09131792,129.0015624
웅동중학교,중학교,경상남도 창원시 진해구 두동 1166-4,35.11247344,128.7959827
창덕중학교,중학교,경상남도 창원시 의창구 동읍 용잠리 282,35.27744139,128.6893481
창원대산중학교,중학교,경상남도 창원시 의창구 대산면 제동리 280,35.33415986,128.7097485
방산고등학교,고등학교,서울특별시 송파구 방이동 220-5,37.50831315,127.120799
광명서초등학교,초등학교,경기도 광명시 광명동 219,37.47816486,126.846844
광명남초등학교,초등학교,경기도 광명시 광명동 295-58,37.47552515,126.8538613
광명동초등학교,초등학교,경기도 광명시 철산동 78-4,37.48346267,126.8632584
광명북초등학교,초등학교,경기도 광명시 철산동 87,37.48668823,126.868059
광명광성초등학교,초등학교,경기도 광명시 철산동 243,37.47829616,126.8728636
용신초등학교,초등학교,경기도 남양주시 진건읍 신월리 87 용신초등학교,37.66078473,127.1729905
영남공업고등학교,고등학교,대구광역시 수성구 만촌동 1160-3,35.8487255,128.6479938
과천여자고등학교,고등학교,경기도 과천시 중앙동 11,37.43238597,126.988584
일직중학교,중학교,경상북도 안동시 일직면 귀미리 1016-3,36.47137349,128.6642604
상명대학교사범대학부속여자고등학교,고등학교,서울특별시 종로구 홍지동 7-1,37.60334127,126.9536925
관동중학교,중학교,경상남도 김해시 관동동 422-1,35.18016669,128.7927184
월산중학교,중학교,경상남도 김해시 부곡동 806-10,35.20485642,128.8031292
율하중학교,중학교,경상남도 김해시 율하동 1293,35.17473289,128.8079042
용원중학교,중학교,경상남도 창원시 진해구 용원동 1231,35.10003481,128.818623
성복고등학교,고등학교,경기도 용인시 수지구 성복동 782,37.32329129,127.0611228
광영고등학교,고등학교,서울특별시 양천구 신월동 43-3,37.53760656,126.8241065
진남초등학교,초등학교,광주광역시 남구 노대동 732,35.10891738,126.9025323
천상초등학교,초등학교,울산광역시 울주군 범서읍 천상리 674,35.56112743,129.2211333
영신초등학교,초등학교,대구광역시 동구 봉무동 524,35.91956207,128.6457809
대구동산초등학교,초등학교,대구광역시 수성구 범어동 678-3,35.84931576,128.6278605
대구동문초등학교,초등학교,대구광역시 수성구 만촌동 262,35.87499675,128.651936
동평여자중학교,중학교,부산광역시 부산진구 부암동 450-1,35.1703496,129.042738
하남중앙초등학교,초등학교,광주광역시 광산구 월곡동 540,35.16835391,126.8053819
세명고등학교,고등학교,경상북도 포항시 남구 대잠동 913,36.01738334,129.3486246
영양여자고등학교,고등학교,경상북도 영양군 영양읍 동부리 5,36.66166725,129.1300539
이서고등학교,고등학교,경상북도 청도군 이서면 서원리 331-3,35.66228751,128.6697698
대구효목초등학교,초등학교,대구광역시 동구 효목동 633,35.87684905,128.6422813
한바다중학교,중학교,부산광역시 수영구 광안동 154-1,35.1570044,129.1182612
김해중학교,중학교,경상남도 김해시 부원동 39,35.23164274,128.8850429
서감초등학교,초등학교,부산광역시 사상구 감전동 122-1,35.15752091,128.9820552
정발고등학교,고등학교,경기도 고양시 일산동구 마두동 894,37.66347392,126.7856112
백마고등학교,고등학교,경기도 고양시 일산동구 백석동 1138,37.65150745,126.7943051
활천중학교,중학교,경상남도 김해시 지내동 15,35.23547333,128.9234945
경운중학교,중학교,경상남도 김해시 내동 1115-3,35.23571345,128.8618364
내동중학교,중학교,경상남도 김해시 내동 169,35.2413656,128.8578975
한얼중학교,중학교,경상남도 김해시 진영읍 여래리 479,35.30363425,128.7412771
함양제일고등학교,고등학교,경상남도 함양군 함양읍 교산리 210,35.52548949,127.7324411
성심여자중학교,중학교,서울특별시 용산구 원효로4가 1-1,37.53462316,126.9544511
방산중학교,중학교,서울특별시 송파구 방이동 220,37.5090712,127.1217525
오륜중학교,중학교,서울특별시 송파구 방이동 89-7,37.51606548,127.1387635
송산중학교,중학교,충청남도 당진시 송산면 도문리 169-1,36.93540954,126.6867303
휘경공업고등학교,고등학교,서울특별시 동대문구 휘경동 49-327,37.58521558,127.0700007
고명경영고등학교,고등학교,서울특별시 성북구 돈암동 45-88,37.59746161,127.0199462
송정서초등학교,초등학교,광주광역시 광산구 도산동 1008-3,35.12983302,126.7876528
송정중앙초등학교,초등학교,광주광역시 광산구 소촌동 321-1,35.14757991,126.7949735
금호중앙중학교,중학교,광주광역시 북구 운암동 140,35.17779883,126.8852718
산마을고등학교,고등학교,인천광역시 강화군 양도면 삼흥리 460,37.68667526,126.4254994
광주공업고등학교,고등학교,광주광역시 북구 매곡동 10,35.18965953,126.8966608
서생초등학교,초등학교,울산광역시 울주군 서생면 신암리 223,35.34924205,129.3270707
풍암중학교,중학교,광주광역시 서구 풍암동 1098,35.12225347,126.8780706
광주화정중학교,중학교,광주광역시 서구 화정동 647-7,35.14459268,126.8819585
광주효광중학교,중학교,광주광역시 서구 쌍촌동 1212,35.14679756,126.8632477
대구봉무초등학교,초등학교,대구광역시 동구 봉무동 1527,35.92572658,128.6374377
명덕초등학교,초등학교,울산광역시 동구 일산동 433,35.50601435,129.4242098
일산초등학교,초등학교,울산광역시 동구 일산동 452,35.50518008,129.4253884
매산초등학교,초등학교,울산광역시 북구 매곡동 334,35.64418712,129.3601539
동천초등학교,초등학교,울산광역시 북구 천곡동 381-4,35.63175943,129.341139
성산중학교,중학교,대구광역시 달서구 용산동 416-4,35.85647807,128.5186821
거제고등학교,고등학교,경상남도 거제시 아주동 295-8 거제고등학교,34.86065979,128.6870801
혜광고등학교,고등학교,부산광역시 중구 보수동1가 2-420,35.10930086,129.0255815
대구하빈초등학교,초등학교,대구광역시 달성군 하빈면 현내리 853,35.90145123,128.4426532
대구서부고등학교,고등학교,대구광역시 서구 평리동 1070-48,35.87393733,128.5599696
남성여자고등학교,고등학교,부산광역시 중구 대청동1가 10,35.10446354,129.0335352
경남고등학교,고등학교,부산광역시 서구 동대신동3가 1-28,35.12139822,129.0203756
시흥은행초등학교,초등학교,경기도 시흥시 은행동 545,37.4423639,126.8008635
시흥장현초등학교,초등학교,경기도 시흥시 장현동 169-6,37.38190086,126.7988337
대구서변초등학교,초등학교,대구광역시 북구 서변동 1749,35.92059525,128.5950136
대구학정초등학교,초등학교,대구광역시 북구 학정동 985,35.94834928,128.5677042
대전둔원초등학교,초등학교,대전광역시 서구 갈마동 1417,36.34274229,127.3752775
가수원초등학교,초등학교,대전광역시 서구 가수원동 471,36.30248937,127.3528022
의귀초등학교,초등학교,제주특별자치도 서귀포시 남원읍 의귀리 1483-3,33.3107338,126.7143754
태흥초등학교,초등학교,제주특별자치도 서귀포시 남원읍 태흥리 970-3,33.28619218,126.7430815
인헌중학교,중학교,서울특별시 관악구 봉천동 1647,37.47272193,126.9693968
부산남일고등학교,고등학교,부산광역시 수영구 망미동 920-10,35.17823254,129.101259
성일여자고등학교,고등학교,부산광역시 사하구 신평동 60-1,35.08881392,128.9790734
노진초등학교,초등학교,경기도 화성시 장안면 노진리 506-6,37.05139403,126.8089368
태종대초등학교,초등학교,부산광역시 영도구 동삼동 962,35.06560225,129.0788526
신관중학교,중학교,서울특별시 관악구 신림동 87-81,37.47987613,126.9341664
남서울중학교,중학교,서울특별시 관악구 신림동 1690-3,37.4817951,126.9214593
인천부평동초등학교,초등학교,인천광역시 부평구 부평동 440-1,37.49971911,126.7237574
도산초등학교,초등학교,광주광역시 광산구 도산동 659-1,35.12614251,126.791836
운호고등학교,고등학교,충청북도 청주시 서원구 모충동 132-13,36.62496458,127.485278
대전대화초등학교,초등학교,대전광역시 대덕구 대화동 244-5,36.36280821,127.4107174
양정초등학교,초등학교,부산광역시 부산진구 양정동 273-8,35.17507294,129.0712023
양성초등학교,초등학교,부산광역시 부산진구 양정동 445-386,35.17006336,129.0661278
연지초등학교,초등학교,부산광역시 부산진구 연지동 238-4,35.17221575,129.0523438
서운초등학교,초등학교,경기도 안성시 서운면 동촌리 146-2,36.94631867,127.2552131
장파초등학교,초등학교,경기도 파주시 파평면 장파리 348-1,37.94122402,126.837545
대성동초등학교,초등학교,경기도 파주시 군내면 조산리 산 32,37.94349566,126.6805051
대구구암초등학교,초등학교,대구광역시 북구 구암동 694-1,35.9281013,128.5579599
대구신암초등학교,초등학교,대구광역시 북구 대현동 1-2,35.88365516,128.6125294
대구매천초등학교,초등학교,대구광역시 북구 매천동 173,35.91277655,128.5417718
청학초등학교,초등학교,부산광역시 영도구 청학동 412-3,35.09311976,129.0590798
하원초등학교,초등학교,제주특별자치도 서귀포시 하원동 323-1,33.25288417,126.4596362
능안초등학교,초등학교,경기도 파주시 조리읍 능안리 53-6,37.74058403,126.7928293
서탄초등학교,초등학교,경기도 평택시 서탄면 금암리 233-1,37.1073282,127.035832
장림초등학교,초등학교,부산광역시 사하구 장림동 182,35.08161373,128.9762896
안양고등학교,고등학교,경기도 안양시 만안구 박달동 144-3,37.40085475,126.9015663
안성초등학교,초등학교,경기도 안성시 구포동 170,37.01166501,127.2718821
내혜홀초등학교,초등학교,경기도 안성시 아양동 292-1,37.00577574,127.2652414
춘천여자고등학교,고등학교,강원도 춘천시 동면 만천리 756,37.88875712,127.7634081
태안여자고등학교,고등학교,충청남도 태안군 태안읍 남문리 416,36.759906,126.2885658
문명중학교,중학교,경상북도 경산시 백천동 산 16,35.80553743,128.7441371
우신고등학교,고등학교,서울특별시 구로구 궁동 230,37.49535636,126.8266741
대영고등학교,고등학교,서울특별시 영등포구 신길동 336-2,37.50342297,126.9059721
서령초등학교,초등학교,충청남도 서산시 죽성동 77-2,36.74401718,126.4475791
일산동고등학교,고등학교,경기도 고양시 일산서구 탄현동 1471,37.70027786,126.768864
문산제일고등학교,고등학교,경기도 파주시 야동동 361,37.77181504,126.7618997
봉일천고등학교,고등학교,경기도 파주시 조리읍 봉일천리 254-2,37.74661359,126.8159899
교하고등학교,고등학교,경기도 파주시 동패동 1707,37.7226655,126.7220327
서서울생활과학고등학교,고등학교,서울특별시 구로구 궁동 35,37.50374092,126.8282007
김해임호고등학교,고등학교,경상남도 김해시 외동 715-2,35.23803636,128.8521631
대광고등학교,고등학교,서울특별시 동대문구 신설동 53-3,37.57764292,127.0244386
원묵고등학교,고등학교,서울특별시 중랑구 묵동 23,37.61543287,127.0860371
선덕고등학교,고등학교,서울특별시 도봉구 쌍문동 263,37.65452068,127.0266221
도학초등학교,초등학교,강원도 고성군 토성면 도원리 193-1,38.27247348,128.5017005
양구여자중학교,중학교,강원도 양구군 양구읍 정림리 230-1,38.1015051,127.9816654
기린중학교,중학교,강원도 인제군 기린면 현리 765-2,37.94701376,128.3131457
영산중학교,중학교,경상남도 창녕군 영산면 서리 253 영산중학교,35.45981956,128.523952
광주자동화설비공업고등학교,고등학교,광주광역시 광산구 우산동 1084,35.14953342,126.813405
거진중학교,중학교,강원도 고성군 거진읍 봉평리 31-1,38.44671017,128.4485352
영락유헬스고등학교,고등학교,서울특별시 관악구 봉천동 1558-1,37.47658804,126.9448543
서울로봇고등학교,고등학교,서울특별시 강남구 일원동 738,37.48069615,127.0843315
단국공업고등학교,고등학교,서울특별시 강남구 대치동 1013,37.49562483,127.0576122
영남삼육고등학교,고등학교,경상북도 경산시 남산면 송내리 70,35.78847715,128.829169
안성여자고등학교,고등학교,경기도 안성시 신소현동 110,37.0178339,127.2581243
충현고등학교,고등학교,경기도 광명시 소하동 991-1,37.43272772,126.8846386
진주외국어고등학교,고등학교,경상남도 진주시 일반성면 개암리 884,35.16890391,128.2814156
독산고등학교,고등학교,서울특별시 금천구 독산동 907-34,37.476199,126.9109732
오산고현초등학교,초등학교,경기도 오산시 고현동 92,37.1334449,127.0856063
신능초등학교,초등학교,경기도 고양시 덕양구 행신동 1005,37.62367798,126.8313553
아람초등학교,초등학교,경기도 고양시 덕양구 행신동 1069,37.61936124,126.8503725
상동고등학교,고등학교,강원도 영월군 상동읍 천평리 414,37.12499499,128.8210032
영흥고등학교,고등학교,전라남도 목포시 상동 55,34.80509033,126.4167191
삼성여자고등학교,고등학교,부산광역시 사하구 감천동 598,35.09411242,128.9985278
안중초등학교,초등학교,충청남도 태안군 안면읍 중장리 653,36.4737391,126.3718407
축동초등학교,초등학교,경상남도 사천시 축동면 배춘리 714,35.10803189,128.0912422
양산제일고등학교,고등학교,경상남도 양산시 교동 273,35.34468307,129.0242554
남지고등학교,고등학교,경상남도 창녕군 남지읍 남지리 829-10,35.38697532,128.4718804
연봉초등학교,초등학교,세종특별자치시 연서면 봉암리 210-2,36.56392345,127.2822546
수왕초등학교,초등학교,세종특별자치시 연기면 눌왕리 324,36.5437128,127.2522374
연남초등학교,초등학교,세종특별자치시 연기면 연기리 397,36.54344606,127.2781964
반곡초등학교,초등학교,강원도 원주시 반곡동 1450-1,37.33740894,127.9733128
진천고등학교,고등학교,충청북도 진천군 진천읍 신정리 590,36.85337809,127.4496168
경북간호고등학교,고등학교,경상북도 포항시 북구 죽장면 입암리 643-1,36.16382588,129.0930431
보은고등학교,고등학교,충청북도 보은군 보은읍 죽전리 61,36.47508837,127.7211248
대흥고등학교,고등학교,충청남도 예산군 대흥면 상중리 231,36.60489155,126.7918533
태안고등학교,고등학교,충청남도 태안군 태안읍 평천리 710,36.75413979,126.3171548
안면고등학교,고등학교,충청남도 태안군 안면읍 승언리 60-27,36.50934646,126.356202
영신고등학교,고등학교,대구광역시 동구 봉무동 524,35.91893236,128.6458576
대구동부고등학교,고등학교,대구광역시 동구 각산동 199,35.87431335,128.7192847
경덕여자고등학교,고등학교,대구광역시 서구 중리동 100-1,35.86435559,128.5493317
함지고등학교,고등학교,대구광역시 북구 구암동 488-3,35.92821164,128.5606143
광명고등학교,고등학교,경기도 광명시 철산동 234,37.47828906,126.8660271
매화초등학교,초등학교,경상북도 울진군 매화면 매화리 1135,36.91388175,129.3814541
부구초등학교,초등학교,경상북도 울진군 북면 부구리 278,37.1024962,129.3710278
합천초등학교,초등학교,충청남도 청양군 화성면 산정리 243,36.42558293,126.7141497
와룡초등학교,초등학교,경상북도 안동시 와룡면 가구리 684,36.61929014,128.7685479
난정초등학교,초등학교,인천광역시 강화군 교동면 난정리 1282,37.77029489,126.2390651
대구대곡초등학교,초등학교,대구광역시 달서구 도원동 1458,35.80360655,128.5360282
대구노전초등학교,초등학교,대구광역시 달서구 도원동 1428-3,35.80808475,128.531315
대구남송초등학교,초등학교,대구광역시 달서구 본동 275-1,35.83449642,128.5454019
길상초등학교,초등학교,인천광역시 강화군 길상면 온수리 527-3,37.63879651,126.490851
양도초등학교,초등학교,인천광역시 강화군 양도면 삼흥리 288,37.68897162,126.4195075
덕도초등학교,초등학교,경기도 양주시 광적면 석우리 525-14,37.84044318,126.9772642
남면초등학교양덕분교장,초등학교,경기도 양주시 남면 한산리 272-1,37.90862973,126.9986702
송해초등학교,초등학교,인천광역시 강화군 송해면 솔정리 640,37.77057545,126.4593163
대진초등학교,초등학교,경상남도 김해시 진례면 담안리 926-2,35.25721362,128.7640203
진례초등학교,초등학교,경상남도 김해시 진례면 초전리 530-2,35.2472536,128.7551969
나주상업고등학교,고등학교,전라남도 나주시 청동 88-1,35.04184388,126.7223652
대구월곡초등학교,초등학교,대구광역시 달서구 상인동 1560,35.81201699,128.5496001
치악고등학교,고등학교,강원도 원주시 관설동 1798-1,37.31556817,127.9585892
대성고등학교,고등학교,강원도 원주시 무실동 산 123-1,37.32788924,127.9203906
김천부곡초등학교,초등학교,경상북도 김천시 부곡동 1512,36.12528486,128.0947608
간성초등학교,초등학교,강원도 고성군 간성읍 신안리 192,38.37762495,128.4692465
거성초등학교,초등학교,강원도 고성군 거진읍 거진리 180,38.45160205,128.4576185
신천초등학교,초등학교,경기도 시흥시 신천동 203,37.43506247,126.7829232
서도초등학교볼음분교장,초등학교,인천광역시 강화군 서도면 볼음도리 696-1,37.67111277,126.1898494
광주계림초등학교,초등학교,광주광역시 동구 계림동 85-24,35.16020751,126.920993
광주용산초등학교,초등학교,광주광역시 동구 용산동 180,35.11861824,126.9315187
하안초등학교,초등학교,경기도 광명시 하안동 649,37.4627844,126.8741756
양구초등학교,초등학교,강원도 양구군 양구읍 상리 197-2,38.10233928,127.9912479
세성초등학교,초등학교,충청북도 충주시 살미면 세성리 147,36.90479486,127.9685039
성사초등학교,초등학교,경기도 고양시 덕양구 성사동 716,37.65764046,126.8443046
능곡초등학교,초등학교,경기도 고양시 덕양구 토당동 278-2,37.62445113,126.8158009
산동초등학교,초등학교,경상남도 밀양시 단장면 범도리 709-3,35.52562721,128.9114601
능포초등학교,초등학교,경상남도 거제시 능포동 440,34.88091007,128.7367249
안명초등학교,초등학교,경상남도 김해시 한림면 안하리 346-1,35.30432738,128.827998
무주초등학교,초등학교,전라북도 무주군 무주읍 읍내리 343,36.01089049,127.6608861
원주금융회계고등학교,고등학교,강원도 원주시 부론면 법천리 1442,37.20850315,127.7524977
금릉초등학교,초등학교,경기도 파주시 금촌동 994,37.75234413,126.7729389
가덕초등학교,초등학교,충청북도 청주시 상당구 가덕면 병암리 125,36.57838439,127.5782751
대구체육고등학교,고등학교,대구광역시 북구 동호동 463-2,35.95833852,128.5583989
인천국제고등학교,고등학교,인천광역시 중구 운서동 3077-4,37.49059416,126.5092234
삼정자초등학교,초등학교,경상남도 창원시 성산구 삼정자동 103,35.20068293,128.7095652
모충초등학교,초등학교,충청북도 청주시 서원구 모충동 372,36.62593459,127.4782836
사포초등학교,초등학교,경상남도 밀양시 부북면 전사포리 574-7,35.47481018,128.7337302
무안초등학교,초등학교,경상남도 밀양시 무안면 무안리 927-1,35.47264174,128.6509278
초동초등학교,초등학교,경상남도 밀양시 초동면 신호리 12-2,35.41235807,128.6914416
통리초등학교,초등학교,강원도 태백시 통동 69-8,37.16636719,129.0355798
상남초등학교,초등학교,경상남도 밀양시 상남면 동산리 713-3,35.39448983,128.7762743
산양초등학교풍화분교장,초등학교,경상남도 통영시 산양읍 풍화리 829-3,34.82691296,128.3585487
노안남초등학교,초등학교,전라남도 나주시 노안면 학산리 503-3,35.06729441,126.7514257
상현고등학교,고등학교,경기도 용인시 수지구 상현동 1129-3,37.29885774,127.0743761
센텀고등학교,고등학교,부산광역시 해운대구 재송동 1222,35.17659608,129.1275569
파주송화초등학교,초등학교,경기도 파주시 아동동 277,37.77463515,126.7790524
금화초등학교,초등학교,경기도 파주시 금촌동 974,37.75510404,126.7680251
예산중앙초등학교,초등학교,충청남도 예산군 예산읍 주교리 250-5,36.6835214,126.8308171
조산초등학교,초등학교,강원도 양양군 양양읍 조산리 450-5,38.11340038,128.6326299
응봉초등학교,초등학교,충청남도 예산군 응봉면 증곡리 436,36.6561167,126.7698783
밀성초등학교,초등학교,경상남도 밀양시 내이동 602-4,35.50275154,128.751963
울진초등학교,초등학교,경상북도 울진군 울진읍 읍내리 479,36.99527021,129.399994
월송초등학교,초등학교,경상북도 울진군 평해읍 월송리 1007,36.73588126,129.4584907
평해초등학교,초등학교,경상북도 울진군 평해읍 평해리 803,36.72320131,129.4379134
죽변초등학교,초등학교,경상북도 울진군 죽변면 죽변리 190,37.06338883,129.4212042
후포동부초등학교,초등학교,경상북도 울진군 후포면 후포리 427-1,36.68597313,129.4625627
온정초등학교,초등학교,경상북도 울진군 온정면 소태리 766,36.72539623,129.3457644
기성초등학교사동분교장,초등학교,경상북도 울진군 기성면 사동리 455,36.82960307,129.437239
미리벌초등학교,초등학교,경상남도 밀양시 삼문동 589-1,35.4800294,128.7484061
송진초등학교,초등학교,경상남도 밀양시 삼랑진읍 송지리 413-1,35.39526363,128.8368524
조치원교동초등학교,초등학교,세종특별자치시 조치원읍 교리 1-12,36.6053979,127.2985403
왜관동부초등학교,초등학교,경상북도 칠곡군 왜관읍 왜관리 694,35.98533341,128.4076649
복수초등학교,초등학교,충청남도 금산군 복수면 곡남리 180,36.1659412,127.3971267
서선초등학교,초등학교,경상북도 안동시 풍산읍 수곡리 382,36.59081281,128.6394799
태안초등학교,초등학교,충청남도 태안군 태안읍 남문리 315,36.75880853,126.2951429
구산초등학교,초등학교,경상남도 김해시 구산동 408,35.25295432,128.8736958
원북초등학교,초등학교,충청남도 태안군 원북면 반계리 222,36.82588185,126.2583368
재산초등학교,초등학교,경상북도 봉화군 재산면 현동리 735,36.8170063,128.9634566
소천초등학교,초등학교,경상북도 봉화군 소천면 현동리 651,36.9381331,129.0021956
석포초등학교,초등학교,경상북도 봉화군 석포면 석포리 376-8,37.04698155,129.0640748
연산중학교,중학교,부산광역시 연제구 연산동 955,35.18426439,129.0896074
용성초등학교,초등학교,경상북도 경산시 용성면 당리리 161,35.79381011,128.8737018
방이중학교,중학교,서울특별시 송파구 방이동 53,37.51451109,127.1130206
세륜중학교,중학교,서울특별시 송파구 오금동 7-3,37.50849606,127.1314098
오주중학교,중학교,서울특별시 송파구 오금동 59,37.50118155,127.1361844
서울신강초등학교,초등학교,서울특별시 양천구 신월동 448-5,37.5259562,126.8416536
오륙도초등학교,초등학교,부산광역시 남구 용호동 946,35.10398109,129.1165036
운산초등학교,초등학교,부산광역시 남구 용호동 776,35.10987611,129.1150548
보수초등학교,초등학교,부산광역시 중구 보수동1가 50-1,35.105905,129.024219
부민초등학교,초등학교,부산광역시 서구 부용동2가 11,35.10638895,129.0194789
낙민초등학교,초등학교,부산광역시 동래구 낙민동 303,35.1991239,129.0883399
봉래초등학교거운분교장,초등학교,강원도 영월군 영월읍 거운리 529-8,37.23624744,128.5122815
대전교촌초등학교,초등학교,대전광역시 유성구 교촌동 618,36.30567575,127.316438
휘문중학교,중학교,서울특별시 강남구 대치동 952-1,37.50547576,127.0619841
센텀중학교,중학교,부산광역시 해운대구 재송동 1206,35.17536656,129.1235891
자유초등학교,초등학교,경기도 파주시 문산읍 당동리 939,37.8653038,126.7862424
마차초등학교공기분교장,초등학교,강원도 영월군 북면 공기리 799,37.3090312,128.4347296
여수종고초등학교,초등학교,전라남도 여수시 덕충동 111,34.74978922,127.743906
망경초등학교,초등학교,경상남도 진주시 망경동 490,35.17954605,128.0828776
남강초등학교,초등학교,경상남도 진주시 상대동 645-9,35.18326805,128.1090574
대전봉명초등학교,초등학교,대전광역시 유성구 봉명동 1023,36.34933078,127.343466
서울은정초등학교,초등학교,서울특별시 양천구 신정동 276-2,37.51125774,126.8673755
신광중학교,중학교,광주광역시 북구 두암동 576-5,35.17909032,126.9317483
문화중학교,중학교,광주광역시 북구 우산동 118-4,35.17836889,126.9238378
장평초등학교,초등학교,강원도 평창군 용평면 장평리 404-1,37.59199146,128.4111739
서울정곡초등학교,초등학교,서울특별시 강서구 방화동 836,37.57695491,126.8188827
속사초등학교,초등학교,강원도 평창군 용평면 속사리 352,37.64622494,128.4923738
정선초등학교,초등학교,강원도 정선군 정선읍 봉양리 306,37.38159445,128.659891
대구남명초등학교,초등학교,대구광역시 남구 대명동 483,35.83507197,128.5820831
청량초등학교,초등학교,울산광역시 울주군 청량읍 덕하리 412-2,35.48664029,129.2972355
문수초등학교,초등학교,울산광역시 울주군 청량읍 율리 390,35.5191632,129.2405385
애월초등학교,초등학교,제주특별자치도 제주시 애월읍 애월리 1736,33.46504523,126.322712
서해초등학교,초등학교,경기도 시흥시 정왕동 1867-2 서해초등학교,37.35595942,126.7247256
시흥도원초등학교,초등학교,경기도 시흥시 신천동 438-1,37.4397036,126.7777517
대구경진초등학교,초등학교,대구광역시 북구 복현동 447,35.89191188,128.6180822
대구산격초등학교,초등학교,대구광역시 북구 산격동 1409,35.89442625,128.6071953
문촌초등학교,초등학교,경기도 고양시 일산서구 주엽동 24,37.6733938,126.7604434
안녕초등학교,초등학교,경기도 화성시 안녕동 50-8,37.20567842,127.0089566
용인한빛초등학교,초등학교,경기도 용인시 수지구 동천동 933,37.33486292,127.0876996
대구대산초등학교,초등학교,대구광역시 북구 산격동 789-4,35.8967642,128.5938099
대구칠곡초등학교,초등학교,대구광역시 북구 읍내동 794,35.94500184,128.5517244
풍산초등학교,초등학교,경기도 고양시 일산동구 풍동 1284,37.6663923,126.7969663
다솜초등학교,초등학교,경기도 고양시 일산동구 풍동 1232,37.67250709,126.7966637
고산초등학교,초등학교,제주특별자치도 제주시 한경면 고산리 2684-1,33.30428524,126.1771664
저청초등학교,초등학교,제주특별자치도 제주시 한경면 저지리 1517,33.32636708,126.2516081
송학초등학교,초등학교,광주광역시 서구 세하동 532,35.11349378,126.8304505
유안초등학교,초등학교,광주광역시 남구 봉선동 124,35.12533927,126.9144592
대전중원초등학교,초등학교,대전광역시 대덕구 중리동 371-5,36.36521601,127.4270686
고양백석초등학교,초등학교,경기도 고양시 일산동구 백석동 1188,37.65178941,126.7892804
낙민초등학교,초등학교,경기도 고양시 일산동구 마두동 795,37.65358923,126.7803097
운담초등학교,초등학교,경기도 포천시 일동면 화대리 608-2,37.97191847,127.3295571
영중초등학교,초등학교,경기도 포천시 영중면 성동리 891-3,38.01460454,127.2484027
명산초등학교,초등학교,울산광역시 울주군 서생면 명산리 504,35.35093768,129.2957917
학성초등학교,초등학교,강원도 원주시 학성동 152-1,37.3543201,127.9507299
문막초등학교,초등학교,강원도 원주시 문막읍 건등리 1704,37.31254133,127.8208337
동화초등학교,초등학교,강원도 원주시 문막읍 동화리 1534-2,37.32752581,127.8288391
장흥초등학교,초등학교,강원도 철원군 동송읍 장흥리 238-5,38.19273237,127.2665429
동송초등학교,초등학교,강원도 철원군 동송읍 이평리 836,38.2032322,127.2168501
대구효동초등학교,초등학교,대구광역시 동구 효목동 212-10,35.88413869,128.6448557
주문진초등학교삼덕분교장,초등학교,강원도 강릉시 주문진읍 장덕리 551,37.87887024,128.789439
세화여자중학교,중학교,서울특별시 서초구 반포동 753,37.5019828,126.9940399
묘장초등학교,초등학교,강원도 철원군 철원읍 대마리 192-5,38.26393785,127.1652187
학성초등학교,초등학교,울산광역시 중구 반구동 270-1,35.56034198,129.3416177
남외초등학교,초등학교,울산광역시 중구 남외동 502-2,35.56581766,129.3483806
유촌초등학교,초등학교,광주광역시 서구 쌍촌동 1320-2,35.15946781,126.8576205
인천성리초등학교,초등학교,인천광역시 남동구 구월동 1487,37.44566922,126.7099273
봉은중학교,중학교,서울특별시 강남구 삼성동 82-7,37.51910487,127.0627595
서울평화초등학교,초등학교,서울특별시 송파구 가락동 106,37.49162927,127.1223566
철산초등학교,초등학교,경기도 광명시 철산동 555,37.46941638,126.8748714
하안남초등학교,초등학교,경기도 광명시 하안동 111,37.46186014,126.885524
하안북초등학교,초등학교,경기도 광명시 하안동 684-1,37.46420874,126.8694787
첨단고등학교,고등학교,광주광역시 광산구 월계동 864-11,35.20672919,126.8372644
숭덕여자고등학교,고등학교,인천광역시 남동구 만수동 5-213,37.46408852,126.7350085
서울가원초등학교,초등학교,서울특별시 송파구 문정동 150-10,37.4891201,127.1114055
서울잠일초등학교,초등학교,서울특별시 송파구 잠실동 19-1,37.51505804,127.0814177
서울잠실초등학교,초등학교,서울특별시 송파구 신천동 20-2,37.52010753,127.1113101
서울가주초등학교,초등학교,서울특별시 송파구 가락동 140-6,37.49662263,127.1292617
서울가동초등학교,초등학교,서울특별시 송파구 가락동 163,37.49713482,127.1303876
진정초등학교,초등학교,경상남도 하동군 금남면 진정리 555-1,34.98596936,127.8242065
근덕초등학교,초등학교,강원도 삼척시 근덕면 교가리 676-1,37.38053783,129.2248653
맹방초등학교,초등학교,강원도 삼척시 근덕면 상맹방리 171-2,37.39860927,129.2134913
신동초등학교,초등학교,강원도 삼척시 신기면 신기리 356-4,37.35083891,129.0820557
금광초등학교조령분교장,초등학교,경기도 안성시 금광면 사흥리 631-2,37.00095956,127.3579576
동두천송내초등학교,초등학교,경기도 동두천시 송내동 665-4,37.88588068,127.052377
소래초등학교,초등학교,경기도 시흥시 신천동 704-2,37.44339167,126.7841446
태랑중학교,중학교,서울특별시 노원구 공릉동 117,37.62663781,127.0915388
서울대학교사범대학부설여자중학교,중학교,서울특별시 종로구 동숭동 199-1,37.57791267,127.003843
주원초등학교,초등학교,경기도 양주시 고암동 580-5,37.83528801,127.0726093
성안초등학교,초등학교,울산광역시 중구 성안동 797-1,35.5766656,129.3120113
대화초등학교,초등학교,경기도 고양시 일산서구 대화동 1643,37.67114954,126.7323693
성저초등학교,초등학교,경기도 고양시 일산서구 대화동 2006,37.68491869,126.7571114
신촌초등학교,초등학교,경기도 고양시 일산서구 일산동 1068,37.68128026,126.765856
일산초등학교,초등학교,경기도 고양시 일산서구 일산동 630-1,37.68255475,126.7720689
서울불광초등학교,초등학교,서울특별시 은평구 불광동 272-2,37.61280178,126.930945
좌삼초등학교,초등학교,경상남도 양산시 상북면 좌삼리 493,35.44048628,129.0436708
덕은초등학교,초등학교,경기도 고양시 덕양구 화전동 274-6,37.60340634,126.8722951
신탄진초등학교,초등학교,대전광역시 대덕구 석봉동 308-7,36.44892028,127.4219582
신탄진용정초등학교,초등학교,대전광역시 대덕구 신탄진동 50,36.45378471,127.4351876
옥동초등학교,초등학교,강원도 영월군 김삿갓면 옥동리 429,37.12981345,128.5700294
마차초등학교,초등학교,강원도 영월군 북면 마차리 1359,37.25720528,128.4539069
서울우장초등학교,초등학교,서울특별시 강서구 화곡동 18-5,37.54880324,126.8462805
중산고등학교,고등학교,경기도 고양시 일산동구 중산동 1554,37.69722363,126.7827823
관동초등학교,초등학교,경상남도 김해시 관동동 1119,35.17743495,128.8168553
죽성초등학교,초등학교,부산광역시 기장군 기장읍 죽성리 86,35.24243156,129.2439194
상명대학교사범대학부속여자중학교,중학교,서울특별시 종로구 홍지동 7-1,37.60276829,126.9541291
중앙중학교,중학교,서울특별시 종로구 계동 1,37.58617083,126.9868579
대구대천초등학교,초등학교,대구광역시 북구 읍내동 1366,35.93697993,128.5542177
덕계초등학교,초등학교,경기도 양주시 덕계동 524-9,37.82329411,127.0475541
대구관천초등학교,초등학교,대구광역시 북구 태전동 999-2,35.93053458,128.5518975
대구태암초등학교,초등학교,대구광역시 북구 태전동 1076-8,35.92326897,128.550346
대구태전초등학교,초등학교,대구광역시 북구 태전동 957,35.93007447,128.5460016
대구북부초등학교,초등학교,대구광역시 북구 동천동 880,35.93338087,128.5591579
서울신곡초등학교,초등학교,서울특별시 강서구 화곡동 476-42,37.53877766,126.8558353
서울염경초등학교,초등학교,서울특별시 강서구 염창동 79,37.55512713,126.8711608
서석초등학교,초등학교,강원도 홍천군 서석면 풍암리 194,37.71217952,128.1881521
신연초등학교,초등학교,부산광역시 남구 우암동 112-77,35.12902017,129.0780248
성천초등학교,초등학교,부산광역시 남구 우암동 216-6,35.13061711,129.0720667
교동초등학교,초등학교,부산광역시 동래구 명륜동 105-1,35.21527527,129.0920637
학산여자중학교,중학교,부산광역시 동래구 명장동 산 85-6,35.2048715,129.0963137
남산중학교,중학교,부산광역시 금정구 남산동 31-11,35.25946305,129.0936509
부곡여자중학교,중학교,부산광역시 금정구 부곡동 717-1,35.22315576,129.095116
동래여자중학교,중학교,부산광역시 금정구 구서동 67,35.24602298,129.096671
선유중학교,중학교,서울특별시 영등포구 양평동3가 82,37.53284324,126.8943293
인천해원중학교,중학교,인천광역시 서구 청라동 103-25,37.52698964,126.6281469
논공중학교,중학교,대구광역시 달성군 논공읍 남리 717-5,35.723943,128.4562263
북동중학교,중학교,대구광역시 달성군 논공읍 남리 318,35.73244949,128.4365331
포산중학교,중학교,대구광역시 달성군 유가읍 봉리 598,35.69626456,128.4587065
동대전초등학교,초등학교,대전광역시 동구 가양동 34-6,36.3517084,127.4486651
대전성남초등학교,초등학교,대전광역시 동구 성남동 193-5,36.34318037,127.4292008
왕전초등학교,초등학교,충청남도 논산시 광석면 왕전리 308,36.23962104,127.1085531
경북관광고등학교,고등학교,경상북도 문경시 문경읍 교촌리 160,36.73858922,128.1139151
안천중학교,중학교,서울특별시 금천구 독산동 1089,37.4592075,126.887722
덕명여자중학교,중학교,부산광역시 부산진구 전포동 487,35.15193007,129.0702874
신기초등학교,초등학교,경상북도 문경시 신기동 67-3,36.63998287,128.1674689
서울안천초등학교,초등학교,서울특별시 금천구 독산동 1090,37.45817893,126.8885094
동광초등학교,초등학교,서울특별시 금천구 시흥동 산 100-4,37.45199688,126.9166976
삼계초등학교,초등학교,경상남도 창원시 마산회원구 내서읍 삼계리 665,35.23207184,128.5003385
호계초등학교,초등학교,경상남도 창원시 마산회원구 내서읍 호계리 71-1,35.26548318,128.5225566
상일초등학교,초등학교,경상남도 창원시 마산회원구 내서읍 중리 1053,35.24436577,128.5069525
순천효천고등학교,고등학교,전라남도 순천시 대룡동 1011,34.90404336,127.4848566
서울갈산초등학교,초등학교,서울특별시 양천구 신정동 330-10,37.51174342,126.8699978
서울양원초등학교,초등학교,서울특별시 양천구 신월동 40-1,37.53865392,126.8234816
주례초등학교,초등학교,부산광역시 부산진구 개금동 630-5,35.14551172,129.0187196
기장중학교,중학교,부산광역시 기장군 기장읍 대라리 40,35.24409183,129.2176895
가수원중학교,중학교,대전광역시 서구 가수원동 806-18,36.29797265,127.3544214
양구여자고등학교,고등학교,강원도 양구군 양구읍 정림리 230-1,38.10160163,127.9816667
고성고등학교,고등학교,강원도 고성군 간성읍 상리 361,38.37836059,128.4615441
화곡고등학교,고등학교,서울특별시 강서구 내발산동 산 48-3,37.54803554,126.832026
가조초등학교,초등학교,경상남도 거창군 가조면 마상리 336-4,35.71151446,128.0132222
단국대학교사범대학부속중학교,중학교,서울특별시 강남구 대치동 1013,37.49620973,127.0559993
은성중학교,중학교,서울특별시 강남구 도곡동 938-10,37.48768658,127.0360193
신탄진중학교,중학교,대전광역시 대덕구 석봉동 311-1,36.44758875,127.4222647
고암초등학교,초등학교,경상남도 창녕군 고암면 중대리 284,35.57715055,128.5111759
구일고등학교,고등학교,서울특별시 구로구 구로동 685-194,37.49391478,126.8739452
주천고등학교,고등학교,강원도 영월군 주천면 주천리 1430,37.27542587,128.2627529
소양고등학교,고등학교,강원도 춘천시 사농동 122,37.90946004,127.7245584
신촌초등학교,초등학교,제주특별자치도 제주시 조천읍 신촌리 1828,33.53430807,126.6192506
원촌중학교,중학교,서울특별시 서초구 반포동 22,37.50588887,127.0140445
해동중학교,중학교,부산광역시 영도구 동삼동 산 57,35.06978326,129.0695311
서울중곡초등학교,초등학교,서울특별시 중랑구 면목동 380,37.57436078,127.0835305
서울면동초등학교,초등학교,서울특별시 중랑구 면목동 551,37.58526987,127.0866805
서울중목초등학교,초등학교,서울특별시 중랑구 면목동 180-5,37.58997982,127.0793361
서울원묵초등학교,초등학교,서울특별시 중랑구 묵동 11,37.61768065,127.0861068
서울상봉초등학교,초등학교,서울특별시 중랑구 상봉동 312-1,37.59809416,127.0836798
서울신내초등학교,초등학교,서울특별시 중랑구 신내동 444,37.60437742,127.0999812
서울중화초등학교,초등학교,서울특별시 중랑구 신내동 531,37.60300324,127.0946485
서울봉화초등학교,초등학교,서울특별시 중랑구 신내동 655,37.61331383,127.0921725
대구대청초등학교,초등학교,대구광역시 수성구 만촌동 873,35.85135399,128.6506405
대구조야초등학교,초등학교,대구광역시 북구 조야동 102-1,35.90946373,128.5772836
대구복명초등학교,초등학교,대구광역시 수성구 범물동 1293,35.81770028,128.6474435
대구범일초등학교,초등학교,대구광역시 수성구 범물동 1364,35.81655445,128.6396582
동촌중학교,중학교,대구광역시 동구 방촌동 1051-2,35.88317781,128.6591381
불로중학교,중학교,대구광역시 동구 불로동 1010,35.89818744,128.6339889
서울명신초등학교,초등학교,서울특별시 종로구 창신동 7-40,37.58146865,127.0139642
서울독립문초등학교,초등학교,서울특별시 종로구 무악동 46-82,37.57413657,126.9602466
선암초등학교,초등학교,부산광역시 부산진구 범천동 1223-27,35.14901723,129.0491815
서울강남초등학교,초등학교,서울특별시 동작구 상도1동 501-1,37.50619275,126.9532007
칠서초등학교이령분교장,초등학교,경상남도 함안군 칠북면 이령리 231-9,35.36616968,128.5391873
남성중학교,중학교,서울특별시 동작구 사당동 304-45,37.47868496,126.972489
장승중학교,중학교,서울특별시 동작구 상도동 175-1,37.50352564,126.9406572
상인중학교,중학교,대구광역시 달서구 상인동 1561,35.81124628,128.5504554
대진중학교,중학교,대구광역시 달서구 대곡동 1036-1,35.80560047,128.5196969
대명중학교,중학교,대구광역시 남구 대명동 519,35.83292395,128.5776174
사하중학교,중학교,부산광역시 사하구 괴정동 1091-1,35.10188381,128.9825619
다송중학교,중학교,부산광역시 사하구 다대동 95,35.06372725,128.9843515
하남중학교,중학교,부산광역시 사하구 하단동 1181-2,35.09944738,128.9588662
두송중학교,중학교,부산광역시 사하구 다대동 1580,35.06072245,128.9832927
동주여자중학교,중학교,부산광역시 사하구 괴정동 380-1,35.10077153,129.0011438
구암중학교,중학교,대구광역시 북구 구암동 694-2,35.92751351,128.5571252
복현중학교,중학교,대구광역시 북구 복현동 316-6,35.89425969,128.6266516
관천중학교,중학교,대구광역시 북구 태전동 999-1,35.93105255,128.552468
매천중학교,중학교,대구광역시 북구 태전동 1128,35.91083352,128.5474028
서변중학교,중학교,대구광역시 북구 서변동 1730,35.9262355,128.595695
성광중학교,중학교,대구광역시 북구 복현동 8-1,35.90850093,128.6239252
경명여자중학교,중학교,대구광역시 북구 칠성동2가 411,35.88037809,128.5988019
무지개초등학교,초등학교,경상남도 진주시 충무공동 125,35.17161995,128.1372551
역삼중학교,중학교,서울특별시 강남구 역삼동 767-20,37.49564471,127.0488444
덕원중학교,중학교,부산광역시 중구 영주동 446-2,35.10840872,129.0318208
대구관음초등학교,초등학교,대구광역시 북구 관음동 1340-1,35.94011836,128.5465256
대구관남초등학교,초등학교,대구광역시 북구 관음동 1386-2,35.93688315,128.5479222
사남초등학교,초등학교,부산광역시 사하구 괴정동 1206-9,35.09615623,128.9823983
신촌초등학교,초등학교,부산광역시 사하구 신평동 산 48-1,35.09070964,128.9803587
울산중앙초등학교,초등학교,울산광역시 남구 신정동 592-2,35.5421612,129.3152965
청솔초등학교,초등학교,울산광역시 남구 달동 813,35.53318138,129.3175833
대구죽전초등학교,초등학교,대구광역시 달서구 죽전동 174-1,35.85745918,128.5398723
한국생명과학고등학교,고등학교,경상북도 안동시 옥동 1202,36.54802975,128.6874684
용연초등학교,초등학교,울산광역시 남구 야음동 789-11,35.52537295,129.3242207
서울동작초등학교,초등학교,서울특별시 동작구 사당동 산 9-1,37.49410161,126.9768411
서울영화초등학교,초등학교,서울특별시 동작구 대방동 44-3,37.50914588,126.9331672
서울신길초등학교,초등학교,서울특별시 동작구 대방동 351-6,37.51038715,126.9266448
대구용산초등학교,초등학교,대구광역시 달서구 용산동 880,35.85512462,128.532168
대전신계초등학교,초등학교,대전광역시 서구 복수동 452,36.30173491,127.3778721
서울장평초등학교,초등학교,서울특별시 동대문구 장안동 323,37.57380744,127.0733241
서울전농초등학교,초등학교,서울특별시 동대문구 전농동 298,37.5744176,127.0544089
장마초등학교,초등학교,경상남도 창녕군 장마면 강리 766-1,35.45935995,128.476815
수동초등학교,초등학교,경상남도 함양군 수동면 화산리 1097,35.52298201,127.7902959
중원중학교,중학교,서울특별시 노원구 중계동 511-3,37.64399166,127.068119
화정초등학교,초등학교,부산광역시 북구 화명동 2330,35.21817515,129.0098487
성읍초등학교,초등학교,제주특별자치도 서귀포시 표선면 성읍리 1002,33.3836035,126.7981213
부산영선중학교,중학교,부산광역시 영도구 신선동3가 8,35.08546777,129.0446792
태종대중학교,중학교,부산광역시 영도구 동삼동 523-1,35.07340075,129.064464
임곡초등학교,초등학교,광주광역시 광산구 임곡동 455-1,35.22046605,126.7467667
삼도초등학교,초등학교,광주광역시 광산구 도덕동 327,35.16393349,126.7006167
반산초등학교,초등학교,부산광역시 해운대구 재송동 1033-1 반산초등학교,35.19365593,129.1292863
장생포초등학교,초등학교,울산광역시 남구 장생포동 329-1,35.50354986,129.3677949
신복초등학교,초등학교,울산광역시 남구 무거동 810,35.55037361,129.2536045
대구장산초등학교,초등학교,대구광역시 달서구 용산동 957,35.85472391,128.5265489
대구이곡초등학교,초등학교,대구광역시 달서구 이곡동 1304-4,35.8566403,128.5135277
대구성곡초등학교,초등학교,대구광역시 달서구 이곡동 1306-5,35.85785373,128.513417
덕산초등학교,초등학교,경상남도 창원시 진해구 자은동 863-1,35.14524853,128.7058528
벽방초등학교,초등학교,경상남도 통영시 광도면 안정리 1058,34.9483281,128.4106883
신목중학교,중학교,서울특별시 양천구 목동 902-1,37.53665397,126.872578
홍익디자인고등학교,고등학교,서울특별시 마포구 연남동 369-1,37.56273392,126.9196795
서울영상고등학교,고등학교,서울특별시 양천구 신정동 984,37.52325879,126.8600333
금구중학교,중학교,광주광역시 광산구 운남동 794-1,35.17548481,126.8152964
선창초등학교,초등학교,광주광역시 광산구 신가동 1044,35.18797369,126.8345325
경명여자고등학교,고등학교,대구광역시 북구 칠성동2가 411,35.88028385,128.5988073
경상여자고등학교,고등학교,대구광역시 북구 침산동 810-1,35.8994486,128.5879459
대구여자고등학교,고등학교,대구광역시 수성구 범어동 238-41,35.85650935,128.6307642
능인고등학교,고등학교,대구광역시 수성구 지산동 800,35.83164247,128.6324923
대전금동초등학교,초등학교,대전광역시 서구 관저동 1141,36.29809672,127.3255769
대전관저초등학교,초등학교,대전광역시 서구 관저동 992,36.30625118,127.3398212
대구명곡초등학교,초등학교,대구광역시 달성군 화원읍 명곡리 132,35.79642741,128.4962231
대구화동초등학교,초등학교,대구광역시 달성군 화원읍 본리리 104-1,35.79980548,128.5095108
삼근초등학교,초등학교,경상북도 울진군 금강송면 삼근리 403,36.93536723,129.2458353
남양초등학교,초등학교,경상북도 울릉군 서면 남양리 586-2,37.47325572,130.8380326
천부초등학교현포분교장,초등학교,경상북도 울릉군 북면 현포리 549,37.5292046,130.8214725
일동초등학교,초등학교,광주광역시 북구 일곡동 890-1,35.20613814,126.8933313
광양마동중학교,중학교,전라남도 광양시 마동 1020,34.95426716,127.6880912
안양관악초등학교,초등학교,경기도 안양시 동안구 관양동 367-2,37.40653622,126.9684838
호계초등학교,초등학교,경기도 안양시 동안구 호계동 923-17,37.38405847,126.9503566
봉덕초등학교,초등학교,경상남도 창원시 마산회원구 봉암동 435-3,35.22219926,128.5946225
북성초등학교,초등학교,경상남도 창원시 마산회원구 석전동 203-7,35.23179826,128.5701766
대구매곡초등학교,초등학교,대구광역시 달성군 다사읍 매곡리 1536,35.86205198,128.4686962
대구죽곡초등학교,초등학교,대구광역시 달성군 다사읍 죽곡리 189,35.85666107,128.4633312
안강초등학교,초등학교,경상북도 경주시 안강읍 안강리 398-1,35.99058751,129.2291697
괘릉초등학교,초등학교,경상북도 경주시 외동읍 괘릉리 595,35.75991746,129.3222803
대전흥룡초등학교,초등학교,대전광역시 동구 가양동 399-1,36.34492913,127.4471177
서울신구초등학교,초등학교,서울특별시 강남구 신사동 550-11,37.52318884,127.0242775
한국교원대학교부설월곡초등학교,초등학교,충청북도 청주시 흥덕구 강내면 월곡리 230,36.62278848,127.3629121
남이초등학교,초등학교,충청북도 청주시 서원구 남이면 대련리 255,36.57702682,127.4543424
신송초등학교,초등학교,충청북도 청주시 상당구 남일면 신송리 411,36.57541324,127.4931372
동산초등학교,초등학교,경상북도 청도군 매전면 동산리 233-5,35.66734943,128.8547025
칠산초등학교,초등학교,경상남도 김해시 화목동 773-1,35.20966332,128.8519631
구봉초등학교,초등학교,경상남도 김해시 구산동 199,35.24043362,128.8732456
김해구지초등학교,초등학교,경상남도 김해시 구산동 1053,35.25262228,128.8691448
대구내서초등학교,초등학교,대구광역시 서구 내당동 11-33,35.86421847,128.5665799
대구두류초등학교,초등학교,대구광역시 서구 내당동 211-1,35.86153771,128.5599761
대구경운초등학교,초등학교,대구광역시 서구 내당동 296,35.86153533,128.5529824
삼산초등학교,초등학교,전라남도 해남군 삼산면 충리 97-4,34.5150585,126.6078698
대구중리초등학교,초등학교,대구광역시 서구 이현동 48-60,35.86955064,128.5453706
대구달서초등학교,초등학교,대구광역시 서구 중리동 65-2,35.86670331,128.5505374
안양중앙초등학교,초등학교,경기도 안양시 동안구 비산동 423,37.39578502,126.9381704
서울교육대학교부설초등학교,초등학교,서울특별시 서초구 서초동 1650,37.49087951,127.0150822
서울서원초등학교,초등학교,서울특별시 서초구 반포동 30-8,37.50261842,127.0152191
서울원촌초등학교,초등학교,서울특별시 서초구 반포동 21,37.50603606,127.0127721
동해중앙초등학교,초등학교,강원도 동해시 천곡동 793,37.52531981,129.1090244
덕송초등학교,초등학교,대전광역시 유성구 덕명동 498,36.36112362,127.3014806
대구옥산초등학교,초등학교,대구광역시 북구 칠성동2가 395-1,35.88144712,128.5988113
대구침산초등학교,초등학교,대구광역시 북구 침산동 465,35.89109298,128.5859812
서울양동초등학교,초등학교,서울특별시 양천구 신정동 941,37.52600601,126.8511587
서울월촌초등학교,초등학교,서울특별시 양천구 목동 901-1,37.54023674,126.8767678
서울영도초등학교,초등학교,서울특별시 양천구 목동 903-1,37.53596256,126.871927
도산초등학교,초등학교,울산광역시 남구 야음동 540,35.53076398,129.3331542
대구수창초등학교,초등학교,대구광역시 중구 수창동 73,35.87450267,128.5840348
격동초등학교,초등학교,울산광역시 남구 옥동 259,35.53399813,129.2901885
영화초등학교,초등학교,울산광역시 울주군 언양읍 서부리 291-10,35.56710582,129.1156322
굴화초등학교,초등학교,울산광역시 울주군 범서읍 굴화리 52-3,35.55383924,129.260642
연포초등학교,초등학교,부산광역시 남구 대연동 1788-2,35.13915063,129.0816638
성동초등학교,초등학교,부산광역시 남구 문현동 497,35.14324739,129.0691191
용호초등학교,초등학교,부산광역시 남구 용호동 75-1,35.12272447,129.1090233
대구삼덕초등학교,초등학교,대구광역시 중구 삼덕동3가 316,35.86340686,128.6083156
대구초등학교,초등학교,대구광역시 중구 봉산동 57,35.86386317,128.595632
대구명덕초등학교,초등학교,대구광역시 중구 남산동 2113,35.85812077,128.5896383
서울자곡초등학교,초등학교,서울특별시 강남구 자곡동 642,37.47206129,127.0996665
연무여자중학교,중학교,충청남도 논산시 연무읍 동산리 879,36.13467435,127.1038318
덕원고등학교,고등학교,대구광역시 수성구 욱수동 81,35.82638241,128.7067233
대구남산고등학교,고등학교,대구광역시 수성구 수성동1가 96-16,35.85788537,128.6093016
대곡고등학교,고등학교,대구광역시 달서구 도원동 1459,35.80348889,128.537231
용남고등학교,고등학교,충청남도 계룡시 신도안면 남선리 1278,36.29380397,127.2448726
용남중학교,중학교,충청남도 계룡시 신도안면 남선리 967-1,36.29981471,127.2438705
진영중학교,중학교,경상남도 김해시 진영읍 진영리 1611-6,35.30891958,128.7341308
수정초등학교,초등학교,부산광역시 동구 수정동 464-2,35.13151968,129.0462182
대전하기초등학교,초등학교,대전광역시 유성구 하기동 514,36.38845405,127.320986
학하초등학교,초등학교,대전광역시 유성구 학하동 580-1,36.33413959,127.3114939
금계초등학교,초등학교,경기도 고양시 일산동구 백석동 1192,37.64997907,126.7840856
백신초등학교,초등학교,경기도 고양시 일산동구 백석동 1428,37.64395106,126.7814417
일산은행초등학교,초등학교,경기도 고양시 일산동구 식사동 916,37.6692824,126.8065204
부일전자디자인고등학교,고등학교,부산광역시 사하구 감천동 634-61,35.09094108,129.0015844
서울영림초등학교,초등학교,서울특별시 영등포구 대림동 993-16,37.4872977,126.9025393
안곡초등학교,초등학교,경기도 고양시 일산동구 중산동 161-3,37.68475123,126.7816708
중산초등학교,초등학교,경기도 고양시 일산동구 중산동 1575-3,37.68997992,126.7836943
금호초등학교,초등학교,광주광역시 서구 쌍촌동 1249,35.14268155,126.8591127
도담고등학교,고등학교,세종특별자치시 도담동 642,36.51387216,127.2639169
청운초등학교,초등학교,경기도 양평군 청운면 용두리 510-2 청운초등학교,37.55457051,127.7133847
강경상업고등학교,고등학교,충청남도 논산시 강경읍 남교리 1,36.16075385,127.0224722
한솔초등학교,초등학교,세종특별자치시 한솔동 973,36.47727662,127.2528733
삼신초등학교,초등학교,울산광역시 남구 삼산동 1510-1,35.5456552,129.3307945
개운초등학교,초등학교,울산광역시 남구 선암동 559-11,35.5133332,129.3114698
산내초등학교,초등학교,대전광역시 동구 낭월동 632,36.27910453,127.4694593
동명초등학교,초등학교,대전광역시 동구 추동 327,36.37370826,127.4737335
황지고등학교,고등학교,강원도 태백시 황지동 232,37.16035783,128.9850789
육민관고등학교,고등학교,강원도 원주시 흥업면 흥업리 751,37.30825455,127.9190277
남산초등학교,초등학교,부산광역시 금정구 남산동 59-2,35.26257097,129.088889
대구서촌초등학교,초등학교,대구광역시 동구 중대동 1082-1,35.9803034,128.631265
대구동촌초등학교,초등학교,대구광역시 동구 방촌동 1047,35.88216775,128.6586917
대구용호초등학교,초등학교,대구광역시 동구 방촌동 1113-319,35.87738316,128.6723608
대구불로초등학교,초등학교,대구광역시 동구 불로동 1017,35.89734859,128.6327216
대구아양초등학교,초등학교,대구광역시 동구 신암동 1463,35.88724726,128.6374496
대구동신초등학교,초등학교,대구광역시 동구 신암동 487,35.87783246,128.6152978
서울오륜초등학교,초등학교,서울특별시 송파구 방이동 89-16,37.51208485,127.1345763
서울반포초등학교,초등학교,서울특별시 서초구 반포동 937,37.50315802,126.9910009
혜화초등학교,초등학교,부산광역시 동래구 명장동 산 12,35.20191927,129.1125376
서울원광초등학교,초등학교,서울특별시 노원구 중계동 359,37.6540189,127.0748416
서울오금초등학교,초등학교,서울특별시 송파구 오금동 7,37.50915569,127.1317971
서울잠전초등학교,초등학교,서울특별시 송파구 잠실동 229,37.50678211,127.0842067
서울마천초등학교,초등학교,서울특별시 송파구 마천동 183-4,37.49535028,127.1522973
괴정초등학교,초등학교,부산광역시 사하구 괴정동 230,35.103589,128.9996516
감정초등학교,초등학교,부산광역시 사하구 감천동 10-2,35.09683832,129.0111843
후포고등학교,고등학교,경상북도 울진군 후포면 후포리 1015,36.68026967,129.4460713
서천초등학교,초등학교,부산광역시 사하구 감천동 506-1,35.08859678,129.0038498
마산여자고등학교,고등학교,경상남도 창원시 마산합포구 완월동 300,35.19563032,128.5611709
창원중앙여자고등학교,고등학교,경상남도 창원시 성산구 상남동 45-4,35.21429866,128.6915791
진해여자고등학교,고등학교,경상남도 창원시 진해구 여좌동 528,35.15598385,128.6575727
강동중학교,중학교,울산광역시 북구 산하동 755,35.62956026,129.4349346
여수웅천중학교,중학교,전라남도 여수시 웅천동 1672,34.75093933,127.6749912
서울논현초등학교,초등학교,서울특별시 강남구 논현동 168,37.5084232,127.0261867
서울대곡초등학교,초등학교,서울특별시 강남구 대치동 510,37.49439753,127.0651645
문산초등학교,초등학교,경기도 파주시 문산읍 문산리 86,37.86078522,126.7831685
서울월계초등학교,초등학교,서울특별시 노원구 월계동 561,37.62762424,127.0508421
서울대학교사범대학부설초등학교,초등학교,서울특별시 종로구 동숭동 199-1,37.57778205,127.0029147
서울한천초등학교,초등학교,서울특별시 노원구 월계동 3-7,37.62015506,127.0688927
울산예술고등학교,고등학교,울산광역시 울주군 웅촌면 대복리 475-1,35.48250472,129.2154733
언양초등학교,초등학교,울산광역시 울주군 언양읍 동부리 407-2,35.57212455,129.1262111
동패고등학교,고등학교,경기도 파주시 동패동 1976,37.71124494,126.7344377
북삼초등학교,초등학교,강원도 동해시 지흥동 124-1,37.49548251,129.1010901
율곡중학교,중학교,경기도 파주시 법원읍 법원리 378,37.84899113,126.8815913
어유중학교,중학교,경기도 파주시 적성면 어유지리 306,37.99370424,126.9876843
덕현중학교,중학교,경기도 양주시 고읍동 79-33,37.80011373,127.0799384
덕계중학교,중학교,경기도 양주시 덕계동 406-2,37.81620717,127.0500823
조치원중학교,중학교,세종특별자치시 조치원읍 서창리 30-11,36.61202761,127.2992709
조치원여자중학교,중학교,세종특별자치시 조치원읍 교리 1-1,36.60650779,127.2980086
서울연촌초등학교,초등학교,서울특별시 노원구 하계동 152,37.63498895,127.0727394
서울태랑초등학교,초등학교,서울특별시 노원구 공릉동 116,37.62637772,127.0907213
양주중학교,중학교,경상남도 양산시 상북면 석계리 51,35.41505914,129.0672343
수원전산여자고등학교,고등학교,경기도 수원시 권선구 탑동 614,37.25925112,126.9688549
대안여자중학교,중학교,경기도 안양시 동안구 호계동 1231,37.37687925,126.9654634
호성중학교,중학교,경기도 안양시 동안구 호계동 781-3,37.36673167,126.964057
대전변동중학교,중학교,대전광역시 서구 변동 54-1,36.3243484,127.3758117
주양초등학교,초등학교,부산광역시 사상구 주례동 10-1,35.15359771,129.0118526
교하중학교,중학교,경기도 파주시 동패동 1706,37.72260841,126.720922
지산중학교,중학교,경기도 파주시 와동동 1356-1,37.72452447,126.7523534
한빛중학교,중학교,경기도 파주시 야당동 992,37.71452576,126.7547465
서울신상계초등학교,초등학교,서울특별시 노원구 상계동 86-1,37.66814915,127.0755891
서울상월초등학교,초등학교,서울특별시 노원구 상계동 697,37.65848709,127.0571716
궁내중학교,중학교,경기도 군포시 산본동 1149-5,37.36366547,126.9192732
모아초등학교,초등학교,경상북도 경주시 천북면 모아리 588,35.92029279,129.2464567
가창중학교,중학교,대구광역시 달성군 가창면 냉천리 772-2,35.77389184,128.6442528
상사초등학교,초등학교,전라남도 순천시 상사면 응령리 287,34.94401868,127.4463338
황전초등학교회덕분교장,초등학교,전라남도 순천시 황전면 회룡리 756,35.10849253,127.4951102
청해초등학교,초등학교,전라남도 완도군 완도읍 장좌리 600,34.35877039,126.7278654
인천청라중학교,중학교,인천광역시 서구 청라동 125-4,37.53758865,126.6539057
강동중학교,중학교,대구광역시 동구 신서동 559,35.86707949,128.7295362
영신중학교,중학교,대구광역시 동구 봉무동 524,35.9191744,128.6458335
공산중학교,중학교,대구광역시 동구 백안동 560-5,35.95538352,128.6895367
동원중학교,중학교,대구광역시 수성구 만촌동 254,35.87553859,128.6507539
가림중학교,중학교,경기도 광명시 하안동 261,37.45728356,126.879981
정신여자중학교,중학교,서울특별시 송파구 잠실동 50-4,37.50903739,127.0735391
신명초등학교,초등학교,경상남도 양산시 평산동 570-49,35.388521,129.141972
서울미래초등학교,초등학교,서울특별시 구로구 구로동 3-13,37.50520381,126.8880137
경남여자중학교,중학교,부산광역시 동구 수정동 363-4,35.1234751,129.0422498
봉선중학교,중학교,광주광역시 남구 봉선동 258-16,35.12953299,126.9124444
광주송원중학교,중학교,광주광역시 남구 송하동 365-1,35.11274599,126.8692648
송광중학교,중학교,광주광역시 광산구 송정동 900,35.13354049,126.7980103
도리초등학교,초등학교,제주특별자치도 제주시 도두일동 2430-1,33.50175309,126.4648213
덕계초등학교,초등학교,경상남도 양산시 덕계동 718-4,35.37561343,129.1532251
서울신성초등학교,초등학교,서울특별시 관악구 신림동 117-4,37.47179668,126.9372757
목동중학교,중학교,서울특별시 양천구 신정동 88-1,37.52051562,126.8714631
봉영여자중학교,중학교,서울특별시 양천구 신정동 325-8,37.50896384,126.8613702
등명중학교,중학교,서울특별시 강서구 등촌동 690-4,37.55987289,126.8432423
용산중학교,중학교,대구광역시 달서구 용산동 888,35.853895,128.5324252
성서중학교,중학교,대구광역시 달서구 용산동 948,35.85563706,128.5264907
평해정보고등학교,고등학교,경상북도 울진군 평해읍 평해리 413,36.72867041,129.442999
일도초등학교,초등학교,제주특별자치도 제주시 일도이동 1038-1,33.50962031,126.5293377
영락고등학교,고등학교,서울특별시 관악구 봉천동 1558-1,37.47630917,126.9441949
대전둔원고등학교,고등학교,대전광역시 서구 갈마동 1243,36.34261583,127.3733872
옥종고등학교,고등학교,경상남도 하동군 옥종면 양구리 41-1,35.17778469,127.8843062
대전지족고등학교,고등학교,대전광역시 유성구 지족동 857,36.37765505,127.3151375
인창고등학교,고등학교,경기도 구리시 인창동 669-3,37.60540901,127.1467159
서도중학교볼음분교장,중학교,인천광역시 강화군 서도면 볼음도리 698-1,37.67128903,126.1890064
운림중학교,중학교,광주광역시 동구 운림동 650,35.13307877,126.9421596
병곡초등학교,초등학교,경상남도 함양군 병곡면 송평리 80,35.52909011,127.6891766
유림초등학교,초등학교,경상남도 함양군 유림면 화촌리 472,35.47202296,127.7926373
거창초등학교,초등학교,경상남도 거창군 거창읍 중앙리 311,35.68789781,127.9104945
북상초등학교,초등학교,경상남도 거창군 북상면 갈계리 1439-1,35.77968978,127.8169387
구암고등학교,고등학교,대구광역시 북구 구암동 672,35.92603624,128.553221
인천청람초등학교,초등학교,인천광역시 서구 청라동 149-1,37.53840656,126.6455924
상일여자고등학교,고등학교,광주광역시 서구 쌍촌동 1353,35.15860222,126.8644416
성신고등학교,고등학교,울산광역시 중구 복산동 352-2,35.56347109,129.3277739
문현고등학교,고등학교,울산광역시 동구 방어동 1008,35.48250651,129.409024
안산동산고등학교,고등학교,경기도 안산시 상록구 본오동 968-1,37.28677955,126.8578501
보문고등학교,고등학교,광주광역시 광산구 운수동 308,35.1548507,126.777093
안동여자고등학교,고등학교,경상북도 안동시 법상동 23-1,36.57289357,128.7250894
경일고등학교,고등학교,경상북도 안동시 신안동 51,36.57569842,128.737749
경안고등학교,고등학교,경상북도 안동시 금곡동 124-17,36.56850446,128.7204749
성창여자고등학교,고등학교,경상북도 안동시 안기동 312,36.57888987,128.712957
성희여자고등학교,고등학교,경상북도 안동시 정하동 산102-1,36.5522656,128.7297909
풍산고등학교,고등학교,경상북도 안동시 풍산읍 안교리 320,36.58316746,128.5653512
광주서광중학교,중학교,광주광역시 남구 백운동 614-1,35.13593993,126.904767
거제상동초등학교,초등학교,경상남도 거제시 상동동 54,34.86151458,128.6342537
내곡초등학교,초등학교,경상남도 거제시 아주동 1478,34.87073351,128.6787274
충주용산초등학교,초등학교,충청북도 충주시 용산동 1671,36.96262379,127.9443861
인천한빛초등학교,초등학교,인천광역시 남동구 서창동 694,37.42406338,126.7442244
하안중학교,중학교,경기도 광명시 하안동 25,37.46699964,126.8810353
서울개명초등학교,초등학교,서울특별시 구로구 개봉동 314-165,37.48312265,126.8507003
서울개봉초등학교,초등학교,서울특별시 구로구 개봉동 266,37.48972738,126.858306
서울신방학초등학교,초등학교,서울특별시 도봉구 방학동 310,37.66559481,127.0295856
거제초등학교,초등학교,부산광역시 연제구 거제동 676-152,35.17780628,129.0667927
연동초등학교,초등학교,부산광역시 연제구 연산동 799,35.18435621,129.0880441
철산중학교,중학교,경기도 광명시 철산동 558,37.47008811,126.8761746
연신초등학교,초등학교,부산광역시 연제구 연산동 302-1,35.19221348,129.0935331
상장중학교,중학교,강원도 태백시 황지동 123,37.14999292,128.9925732
반안초등학교,초등학교,부산광역시 해운대구 반여동 1164-6,35.20293351,129.1133433
자인여자중학교,중학교,경상북도 경산시 자인면 동부리 208,35.81597515,128.8275459
연제초등학교,초등학교,부산광역시 연제구 연산동 1300,35.18424152,129.078533
연미초등학교,초등학교,부산광역시 연제구 연산동 1824-60,35.17098606,129.0926285
창신초등학교,초등학교,부산광역시 연제구 거제동 897-3,35.19237169,129.0655653
서울가산초등학교,초등학교,서울특별시 금천구 독산동 143-23,37.47794535,126.896405
서울양재초등학교,초등학교,서울특별시 서초구 양재동 101,37.47387453,127.0319938
서울대진초등학교,초등학교,서울특별시 강남구 개포동 13,37.49668479,127.0780425
서울구룡초등학교,초등학교,서울특별시 강남구 개포동 655,37.48080548,127.051891
영동고등학교,고등학교,서울특별시 강남구 청담동 23-4,37.5206269,127.0419943
중일고등학교,고등학교,대전광역시 유성구 관평동 671,36.42033071,127.3889971
동궁초등학교,초등학교,부산광역시 사상구 엄궁동 680-4,35.1233479,128.974478
단국대학교사범대학부속고등학교,고등학교,서울특별시 강남구 대치동 1013,37.49549061,127.0562354
은광여자고등학교,고등학교,서울특별시 강남구 도곡동 938-10,37.48856855,127.0353764
대성일고등학교,고등학교,경상남도 거창군 거창읍 가지리 326,35.69103646,127.9004898
거창고등학교,고등학교,경상남도 거창군 거창읍 중앙리 411,35.69262588,127.9109812
거창공업고등학교,고등학교,경상남도 거창군 가조면 마상리 483,35.71354012,128.015418
학성여자고등학교,고등학교,울산광역시 중구 약사동 707-5,35.56634045,129.3349493
다운고등학교,고등학교,울산광역시 중구 다운동 641,35.56665848,129.2698303
서울개웅초등학교,초등학교,서울특별시 구로구 개봉동 산53-25,37.48839858,126.850121
대전둔원중학교,중학교,대전광역시 서구 갈마동 1416,36.34237789,127.3766789
광남중학교,중학교,경기도 광명시 광명동 384-6,37.47054524,126.8477212
광명북중학교,중학교,경기도 광명시 철산동 59,37.48725169,126.8661874
함양여자중학교,중학교,경상남도 함양군 함양읍 교산리 956,35.52395122,127.7249767
능곡중학교,중학교,경기도 고양시 덕양구 토당동 394,37.62267308,126.8263301
의림여자중학교,중학교,충청북도 제천시 하소동 49-2,37.14240805,128.1973457
계촌중학교,중학교,강원도 평창군 방림면 계촌리 1373,37.45285812,128.3083929
정선중학교,중학교,강원도 정선군 정선읍 봉양리 153-1,37.37816315,128.6616971
김화중학교,중학교,강원도 철원군 서면 와수리 589-5,38.24294687,127.4349464
창원상남중학교,중학교,경상남도 창원시 성산구 가음정동 산8,35.21474025,128.6852511
안민중학교,중학교,경상남도 창원시 성산구 안민동 639-1,35.18385151,128.6937005
왕산중학교,중학교,강원도 강릉시 왕산면 도마리 325-18,37.67272366,128.8369031
서천중학교,중학교,경기도 용인시 기흥구 서천동 797,37.23989787,127.076061
근덕중학교,중학교,강원도 삼척시 근덕면 교가리 540,37.38501788,129.2254999
화촌중학교,중학교,강원도 홍천군 화촌면 내삼포리 349,37.7553729,127.9624267
두촌중학교,중학교,강원도 홍천군 두촌면 자은리 568,37.87141819,128.0260443
해미중학교,중학교,충청남도 서산시 해미면 읍내리 450-1,36.71543176,126.5438408
만리포중학교,중학교,충청남도 태안군 소원면 신덕리 631-2,36.76552125,126.1937792
은빛초등학교,초등학교,광주광역시 광산구 수완동 1494,35.18772659,126.8278849
서천중학교,중학교,충청남도 서천군 서천읍 군사리 601,36.07533854,126.6935509
장곡중학교,중학교,경상북도 칠곡군 석적읍 중리 246,36.07310547,128.4150883
인평중학교,중학교,경상북도 칠곡군 북삼읍 인평리 518-2,36.06235944,128.3356923
순심여자중학교,중학교,경상북도 칠곡군 왜관읍 왜관리 776-9,35.98578211,128.3961969
악양중학교,중학교,경상남도 하동군 악양면 신흥리 921,35.16261179,127.7128383
정선정보공업고등학교,고등학교,강원도 정선군 정선읍 북실리 765-1,37.37989119,128.6476202
김화공업고등학교,고등학교,강원도 철원군 서면 와수리 589-5,38.24294691,127.4349464
수완하나중학교,중학교,광주광역시 광산구 수완동 973,35.19406095,126.8274795
백신중학교,중학교,경기도 고양시 일산동구 마두동 788,37.65098161,126.783446
정발중학교,중학교,경기도 고양시 일산동구 마두동 811,37.65958545,126.7807444
백마중학교,중학교,경기도 고양시 일산동구 마두동 733,37.65486963,126.7935595
안산부곡중학교,중학교,경기도 안산시 상록구 부곡동 693,37.32367971,126.8583985
성포중학교,중학교,경기도 안산시 상록구 월피동 459,37.33534251,126.8511031
해룡중학교,중학교,전라남도 영광군 영광읍 도동리 68,35.26906191,126.5127952
광명경영회계고등학교,고등학교,경기도 광명시 소하동 883-13,37.43800289,126.8825678
일죽고등학교,고등학교,경기도 안성시 일죽면 송천리 243-1,37.0914178,127.4738024
두원공업고등학교,고등학교,경기도 안성시 미양면 신기리 203-4,36.99677795,127.2429931
일산양일중학교,중학교,경기도 고양시 일산동구 식사동 1554,37.67675091,126.8153792
저동중학교,중학교,경기도 고양시 일산동구 정발산동 1192,37.67045377,126.7783338
중산중학교,중학교,경기도 고양시 일산동구 중산동 1575-2,37.69119631,126.7836971
봉화중학교,중학교,경상북도 봉화군 봉화읍 삼계리 40,36.89548837,128.7398796
서울공진초등학교,초등학교,서울특별시 강서구 마곡동 730-676,37.55780477,126.82273
서해중학교,중학교,경기도 시흥시 정왕동 1866-4,37.35690764,126.7257594
송운중학교,중학교,경기도 시흥시 정왕동 1875-4,37.35928963,126.7310923
논곡중학교,중학교,경기도 시흥시 논곡동 160-45,37.38887267,126.8577719
시흥매화중학교,중학교,경기도 시흥시 매화동 269,37.41303356,126.8150557
소래중학교,중학교,경기도 시흥시 은행동 107,37.43700397,126.7965533
포천중학교,중학교,경기도 포천시 신북면 가채리 841-1,37.90717942,127.201938
천곡중학교,중학교,울산광역시 북구 천곡동 392,35.63276114,129.3406498
덕정중학교,중학교,경기도 양주시 덕정동 151-10,37.84215353,127.0634683
삼숭중학교,중학교,경기도 양주시 삼숭동 679-1,37.79796373,127.1082758
백학중학교,중학교,경기도 연천군 백학면 두일리 568-2,38.02610911,126.9082653
대전하기중학교,중학교,대전광역시 유성구 하기동 520,36.38563144,127.321797
가재울고등학교,고등학교,서울특별시 서대문구 북가좌동 476,37.57416415,126.9095302
신천중학교,중학교,경기도 시흥시 신천동 207-1,37.43397511,126.7823306
안성중학교,중학교,경기도 안성시 금산동 33-12,37.01361108,127.2703465
안성여자중학교,중학교,경기도 안성시 봉남동 360,37.00780888,127.2764358
후포중학교,중학교,경상북도 울진군 후포면 후포리 1015,36.6806293,129.4456603
온정중학교,중학교,경상북도 울진군 온정면 소태리 776,36.72630596,129.3467609
기성중학교,중학교,경상북도 울진군 기성면 기성리 256,36.79946824,129.4571813
능인중학교,중학교,대구광역시 수성구 지산동 800,35.83186327,128.6325471
신명여자중학교,중학교,대구광역시 수성구 수성동1가 96-16,35.8577093,128.6092931
중리중학교,중학교,대구광역시 서구 중리동 105-1,35.86436971,128.5510114
서남중학교,중학교,대구광역시 서구 중리동 713,35.85776476,128.5424121
서대전고등학교,고등학교,대전광역시 서구 월평동 307,36.36057062,127.369221
중곡초등학교,초등학교,경상남도 거제시 고현동 996,34.89523517,128.6294644
학남중학교,중학교,대구광역시 북구 국우동 1085,35.9456019,128.570413
동신중학교,중학교,대전광역시 동구 판암동 241,36.3202964,127.459053
소천중학교,중학교,경상북도 봉화군 소천면 현동리 701-10,36.94277276,129.0014609
평해여자중학교,중학교,경상북도 울진군 평해읍 평해리 413,36.72856002,129.4442084
장목초등학교,초등학교,경상남도 거제시 장목면 장목리 325-1,34.99229177,128.6818176
거제초등학교,초등학교,경상남도 거제시 거제면 동상리 415,34.85165504,128.5919708
합포고등학교,고등학교,경상남도 창원시 마산합포구 교방동 170-1,35.20908674,128.5642099
주엽고등학교,고등학교,경기도 고양시 일산서구 대화동 2168,37.67586639,126.7548137
군포신기초등학교,초등학교,경기도 군포시 부곡동 1208,37.33859822,126.9329147
고양일고등학교,고등학교,경기도 고양시 덕양구 고양동 248-17,37.70004261,126.9011458
능곡고등학교,고등학교,경기도 고양시 덕양구 토당동 394-3,37.62373567,126.8253619
화수고등학교,고등학교,경기도 고양시 덕양구 화정동 854,37.64474409,126.8361544
일산대진고등학교,고등학교,경기도 고양시 일산서구 대화동 2097,37.68066286,126.7516954
원이중학교,중학교,충청남도 태안군 원북면 마산리 510-2,36.82952112,126.2663941
구산고등학교,고등학교,경상남도 김해시 구산동 396,35.24983116,128.8762148
죽전중학교,중학교,대구광역시 달서구 죽전동 176,35.85759194,128.5389301
감만중학교,중학교,부산광역시 남구 감만동 2-1,35.12137583,129.088839
동항중학교,중학교,부산광역시 남구 감만동 176-82,35.11870278,129.0853155
남천중학교,중학교,부산광역시 남구 대연동 455-12,35.13633995,129.1050912
대천중학교,중학교,부산광역시 남구 대연동 643-1,35.12865719,129.1028097
마사고등학교실습지,고등학교,전라북도 장수군 천천면 월곡리 662-2 662-2,35.70123128,127.5119303
숭의여자고등학교,고등학교,서울특별시 동작구 대방동 20-114,37.50783886,126.9288331
서울문영여자고등학교,고등학교,서울특별시 관악구 봉천동 1695,37.47345337,126.9510607
물야중학교,중학교,경상북도 봉화군 물야면 오록리 465,36.97762962,128.738327
춘양중학교,중학교,경상북도 봉화군 춘양면 서동리 90,36.94790637,128.913923
거제장평중학교,중학교,경상남도 거제시 장평동 148,34.88636155,128.6062553
제석초등학교,초등학교,경상남도 통영시 광도면 죽림리 1583,34.87573861,128.4168114
달산초등학교,초등학교,부산광역시 기장군 정관읍 달산리 1204,35.31913155,129.187376
울릉서중학교,중학교,경상북도 울릉군 서면 남서리 30-3,37.4736145,130.8342539
울산중앙중학교,중학교,울산광역시 남구 신정동 859-3,35.52645094,129.3163849
대전여자고등학교,고등학교,대전광역시 동구 대동 16-2,36.32956665,127.4471431
관동중학교,중학교,강원도 강릉시 교동 1427,37.75694584,128.8797109
청도전자고등학교,고등학교,경상북도 청도군 풍각면 송서리 553-6,35.64086586,128.6203325
기장초등학교,초등학교,부산광역시 기장군 기장읍 동부리 320,35.24595438,129.212225
사직중학교,중학교,부산광역시 동래구 사직동 598-1,35.1994721,129.0519304
상인고등학교,고등학교,대구광역시 달서구 상인동 1562,35.81050721,128.5514396
동아중학교,중학교,부산광역시 수영구 광안동 1222-23,35.15700619,129.1072124
모전중학교,중학교,부산광역시 기장군 정관읍 모전리 720,35.33791302,129.1621538
대정중학교,중학교,제주특별자치도 서귀포시 대정읍 하모리 778,33.21962987,126.2542317
표선중학교,중학교,제주특별자치도 서귀포시 표선면 표선리 317-1,33.32972584,126.8319521
하동중앙중학교,중학교,경상남도 하동군 하동읍 읍내리 667,35.07709986,127.7492041
대구파동초등학교,초등학교,대구광역시 수성구 파동 8,35.8245666,128.6079603
우신고등학교,고등학교,울산광역시 남구 무거동 962-2,35.53868871,129.2504369
일산고등학교,고등학교,경기도 고양시 일산서구 일산동 966-50,37.6889721,126.767316
대전동광초등학교,초등학교,대전광역시 동구 자양동 94-3,36.3370045,127.449217
인천포스코고등학교,고등학교,인천광역시 연수구 송도동 15-6,37.40139012,126.648803
신용중학교,중학교,광주광역시 북구 신용동 672,35.21055433,126.8608798
동산중학교,중학교,강원도 춘천시 동산면 조양리 703-1,37.75030169,127.7904542
청양중학교,중학교,충청남도 청양군 청양읍 송방리 133-1,36.45220819,126.7956989
서울송례초등학교,초등학교,서울특별시 송파구 장지동 898,37.47773418,127.1385039
송례중학교,중학교,서울특별시 송파구 장지동 899,37.47769454,127.1397415
동곡초등학교,초등학교,광주광역시 광산구 하산동 141,35.09809545,126.7729197
한국조리과학고등학교,고등학교,경기도 시흥시 과림동 11-1,37.45880525,126.8330301
원평중학교,중학교,충청북도 청주시 서원구 분평동 1362,36.60779614,127.4936414
북면초등학교,초등학교,경상남도 창원시 의창구 북면 감계리 231-2,35.30534046,128.5998234
운호중학교,중학교,충청북도 청주시 서원구 모충동 132-13,36.62565381,127.4862797
대성중학교,중학교,충청북도 청주시 흥덕구 신봉동 171-1,36.65770602,127.4689201
동명초등학교,초등학교,강원도 강릉시 송정동 168-1,37.7753299,128.928983
하안북중학교,중학교,경기도 광명시 하안동 684,37.46455423,126.8681304
세종국제고등학교,고등학교,세종특별자치시 아름동 810,36.52152828,127.2469708
유가중학교,중학교,대구광역시 달성군 유가읍 봉리 626 유가중학교,35.69128395,128.4661398
별빛중학교,중학교,경상북도 영천시 고경면 해선리 240-3,36.00265291,129.0439581
대흥중학교,중학교,경기도 시흥시 대야동 377-70,37.44714352,126.7836092
시화중학교,중학교,경기도 시흥시 정왕동 1552,37.3408208,126.7559823
발산중학교,중학교,경기도 고양시 일산서구 주엽동 56,37.66970112,126.7700602
고양송산중학교,중학교,경기도 고양시 일산서구 가좌동 1100,37.68800369,126.7220035
대송중학교,중학교,경기도 고양시 일산서구 대화동 1492-1,37.67075584,126.7309478
대화중학교,중학교,경기도 고양시 일산서구 대화동 2230,37.67381374,126.7447592
현산중학교,중학교,경기도 고양시 일산서구 일산동 1915,37.69124586,126.7736899
인천연송고등학교,고등학교,인천광역시 연수구 송도동 15-4,37.40290575,126.6467361
인천송일초등학교,초등학교,인천광역시 연수구 송도동 107,37.38397294,126.6356143
인천백석초등학교(이전재배치),초등학교,인천광역시 서구 당하동 1084-1,37.58966026,126.6721693
웅산초등학교,초등학교,충청남도 예산군 광시면 광시리 76,36.55084285,126.7734884
영화초등학교화덕분교장,초등학교,경상북도 영천시 화산면 덕암리 548-3,36.03251471,128.8331812
대구비슬초등학교,초등학교,대구광역시 달성군 유가읍 봉리 597,35.69612233,128.4573606
서산중학교,중학교,충청남도 서산시 석남동 57-1,36.76863463,126.4589572
춘천여자중학교,중학교,강원도 춘천시 효자동 214-4,37.86495009,127.7407637
강원체육중학교,중학교,강원도 춘천시 송암동 산 1-1,37.86067037,127.6936615
한림중학교,중학교,경상남도 김해시 한림면 장방리 346,35.32128034,128.7992889
석적고등학교,고등학교,경상북도 칠곡군 석적읍 중리 15,36.08165963,128.4182165
금천고등학교,고등학교,경상북도 청도군 금천면 동곡리 1000-1,35.68780781,128.8947261
인천가원초등학교,초등학교,인천광역시 서구 가정동 605-1,37.5291672,126.6637398
송지초등학교,초등학교,전라남도 해남군 송지면 산정리 724-1,34.36943669,126.5201354
가득초등학교,초등학교,세종특별자치시 새롬동 387-6,36.48746365,127.2434548
Branksome Hall Asia,고등학교,제주특별자치도 서귀포시 대정읍 구억리 1121,33.29104201,126.2878344
창남초등학교,초등학교,경상남도 거창군 거창읍 대평리 1234,35.68281112,127.9157302
용산초등학교,초등학교,경상남도 김해시 상동면 여차리 133,35.35441411,128.9021578
갈매고등학교,고등학교,경기도 구리시 갈매동 410-2,37.62720812,127.1175209
가원중학교,중학교,서울특별시 송파구 가락동 106-3,37.49078127,127.1228736
승학초등학교,초등학교,부산광역시 사하구 괴정동 354-111,35.10172255,129.0031826
인헌고등학교,고등학교,서울특별시 관악구 봉천동 174-5,37.47164063,126.9697945
도산초등학교,초등학교,경상남도 산청군 신안면 문대리 589-3,35.33541468,127.9998319
대전용산고등학교,고등학교,대전광역시 유성구 용산동 658,36.42066556,127.3955878
해남중학교,중학교,전라남도 해남군 해남읍 남외리 4,34.57186124,126.5947409
황산중학교,중학교,전라남도 해남군 황산면 우항리 16-1,34.58027115,126.4472819
동영중학교,중학교,충청남도 청양군 남양면 구룡리 402-1,36.40121211,126.7666534
용궁중학교,중학교,경상북도 예천군 용궁면 읍부리 251-3,36.61013887,128.2752026
창원기계공업고등학교,고등학교,경상남도 창원시 성산구 중앙동 108,35.22544581,128.6664091
강원중학교,중학교,강원도 춘천시 동면 장학리 산 36,37.89616042,127.7569264
광양용강중학교,중학교,전라남도 광양시 광양읍 용강리 593,34.97528047,127.6112037
월산초등학교,초등학교,전라남도 담양군 월산면 화방리 629-1,35.34066021,126.9504196
영광군남중학교,중학교,전라남도 영광군 군남면 포천리 431-1,35.2401761,126.4512198
한국산림과학고등학교,고등학교,경상북도 봉화군 춘양면 서동리 90,36.94740753,128.9143618
장성남중학교,중학교,전라남도 장성군 남면 분향리 335,35.24381305,126.8114359
거창중학교신원분교장,중학교,경상남도 거창군 신원면 과정리 253,35.56225899,127.9249086
금곡고등학교,고등학교,경기도 남양주시 금곡동 152-18,37.63347044,127.2133667
안중고등학교,고등학교,경기도 평택시 안중읍 현화리 315,36.98662664,126.923069
내정중학교,중학교,경기도 성남시 분당구 수내동 64,37.37032151,127.1196657
이우중학교,중학교,경기도 성남시 분당구 동원동 157-1,37.35269136,127.090377
초계초등학교덕곡분교장,초등학교,경상남도 합천군 덕곡면 장리 761,35.62918984,128.3210491
대전둔산중학교,중학교,대전광역시 서구 갈마동 822,36.35342527,127.372159
가산초등학교,초등학교,경상북도 칠곡군 가산면 천평리 287-2,36.07949191,128.5397672
용문초등학교,초등학교,경상북도 예천군 용문면 상금곡리 543-1,36.68996255,128.4083209
감천초등학교,초등학교,경상북도 예천군 감천면 포리 380,36.72214372,128.5258848
도촌초등학교,초등학교,경상북도 봉화군 봉화읍 적덕리 891-1,36.88022227,128.6860318
장동초등학교,초등학교,전라남도 장흥군 장동면 북교리 306-4,34.74652339,126.9939828
가산초등학교,초등학교,강원도 춘천시 동면 지내리 136-2,37.90869296,127.782582
내가초등학교,초등학교,인천광역시 강화군 내가면 고천리 745-2,37.72122783,126.3902882
다전초등학교,초등학교,울산광역시 중구 다운동 686-1,35.56797391,129.2680021
영해중학교,중학교,경상북도 영덕군 영해면 괴시리 115,36.54214535,129.4129421
각리중학교,중학교,충청북도 청주시 청원구 오창읍 각리 637-4,36.70901765,127.4217596
심석중학교,중학교,경기도 남양주시 화도읍 마석우리 215-9,37.65635432,127.3070128
광동중학교,중학교,경기도 남양주시 진접읍 장현리 603-5,37.71622497,127.1754948
별내중학교,중학교,경기도 남양주시 별내면 청학리 421,37.71069739,127.1127461
연세중학교,중학교,경기도 남양주시 조안면 송촌리 760,37.56849412,127.3207301
구리중학교,중학교,경기도 구리시 수택동 784,37.5894026,127.1412141
내수중학교,중학교,충청북도 청주시 청원구 내수읍 마산리 1,36.72303282,127.537914
가덕중학교,중학교,충청북도 청주시 상당구 가덕면 수곡리 255,36.56224498,127.5611581
익산한벌초등학교,초등학교,전라북도 익산시 부송동 1204,35.95870153,126.9940152
한솔초등학교,초등학교,충청북도 청주시 서원구 수곡동 322,36.61838295,127.4763331
내촌중학교,중학교,경기도 포천시 내촌면 음현리 710-1,37.77941327,127.2245739
홍농초등학교,초등학교,전라남도 영광군 홍농읍 상하리 222,35.3992116,126.4483518
홍농서초등학교,초등학교,전라남도 영광군 홍농읍 성산리 74,35.41804175,126.4401078
구미사곡초등학교,초등학교,경상북도 구미시 사곡동 667,36.09956988,128.3602301
양구고등학교,고등학교,강원도 양구군 양구읍 상리 183,38.10065469,127.9914149
가온초등학교,초등학교,경기도 파주시 목동동 687,37.72047331,126.747041
청석초등학교,초등학교,경기도 파주시 다율동 983 청석초등학교,37.73105096,126.7192795
백양초등학교,초등학교,경기도 고양시 덕양구 화정동 990,37.63176194,126.8361005
지도초등학교,초등학교,경기도 고양시 덕양구 화정동 1132,37.62792909,126.8339171
고양화수초등학교,초등학교,경기도 고양시 덕양구 화정동 860,37.64514478,126.8327312
화중초등학교,초등학교,경기도 고양시 덕양구 화정동 871,37.64053687,126.8359978
고양화정초등학교,초등학교,경기도 고양시 덕양구 화정동 942,37.63373543,126.826111
경기물류고등학교,고등학교,경기도 평택시 안중읍 안중리 293-46,36.9869058,126.9294215
행주초등학교,초등학교,경기도 고양시 덕양구 행주내동 175,37.60332089,126.8246973
토당초등학교,초등학교,경기도 고양시 덕양구 토당동 409-12,37.61729369,126.8263013
백석중학교,중학교,경기도 고양시 일산동구 백석동 1346,37.64167373,126.7825326
남면초등학교,초등학교,경기도 양주시 남면 신산리 286-2,37.89403651,126.9750617
지도중학교,중학교,경기도 고양시 덕양구 화정동 1134,37.62687259,126.8336844
풍산중학교,중학교,경기도 고양시 일산동구 풍동 1288,37.66461576,126.7988145
남양주덕송초등학교,초등학교,경기도 남양주시 별내동 813,37.66934657,127.115854
송호중학교,중학교,경기도 안산시 단원구 고잔동 765-1,37.31109858,126.839377
목암중학교,중학교,경기도 고양시 덕양구 고양동 723,37.71375443,126.9058206
용정초등학교,초등학교,경기도 고양시 덕양구 화정동 918,37.6402842,126.8295772
목암초등학교,초등학교,경기도 고양시 덕양구 고양동 722,37.71400496,126.9048562
성라초등학교,초등학교,경기도 고양시 덕양구 성사동 732,37.65234921,126.8336507
무원초등학교,초등학교,경기도 고양시 덕양구 행신동 696,37.61734679,126.8316582
금당초등학교,초등학교,전라남도 완도군 금당면 육산리 260,34.44058632,127.0614175
가남초등학교,초등학교,경상남도 양산시 물금읍 가촌리 1277-5,35.31202707,128.997649
원동초등학교,초등학교,경기도 오산시 원동 805,37.13525333,127.0697217
병점중학교,중학교,경기도 화성시 병점동 825,37.21011436,127.0401948
와동중학교,중학교,경기도 안산시 단원구 와동 143,37.33895519,126.8304073
미사중앙초등학교,초등학교,경기도 하남시 망월동 1180,37.5592925,127.1987016
능동초등학교,초등학교,경기도 화성시 능동 1085,37.2131515,127.0587131
전남미용고등학교,고등학교,전라남도 나주시 영산동 82,34.99789587,126.7121932
솔빛중학교,중학교,경기도 화성시 반송동 136,37.19598804,127.0724522
기산중학교,중학교,경기도 화성시 기산동 469,37.21901526,127.0524467
안용중학교,중학교,경기도 화성시 송산동 97-7,37.2062505,127.0200686
화성동화중학교,중학교,경기도 화성시 봉담읍 동화리 631,37.21386594,126.9618887
발안중학교,중학교,경기도 화성시 향남읍 평리 63-18,37.13284524,126.9189937
성화중학교,중학교,충청북도 청주시 서원구 성화동 615,36.61724422,127.459426
임천초등학교,초등학교,충청남도 부여군 임천면 군사리 252,36.19110413,126.8929892
팔룡중학교,중학교,경상남도 창원시 의창구 팔용동 74,35.25168987,128.6177971
가양초등학교,초등학교,경상남도 양산시 물금읍 물금리 890-1,35.31047109,128.9908758
군산중앙고등학교,고등학교,전라북도 군산시 성산면 도암리 608-9,36.00093027,126.7848814
후포초등학교,초등학교,경상북도 울진군 후포면 삼율리 322,36.68088969,129.4406437
울릉초등학교,초등학교,경상북도 울릉군 울릉읍 도동리 232-11,37.48914372,130.9011653
양평중학교,중학교,경기도 양평군 양평읍 공흥리 714-7,37.49827647,127.4969055
가회중학교,중학교,경상남도 합천군 가회면 덕촌리 308-1,35.43612441,128.033019
고양고등학교,고등학교,경기도 고양시 덕양구 삼송동 45-2,37.65456495,126.8911626
남양주공업고등학교,고등학교,경기도 남양주시 화도읍 월산리 99-4,37.6532308,127.3336394
석포중학교,중학교,경상북도 봉화군 석포면 석포리 356-2,37.05151018,129.0675221
서라벌여자중학교,중학교,경상북도 경주시 황성동 1053-18,35.8556212,129.2170311
선덕여자중학교,중학교,경상북도 경주시 인왕동 571-1,35.83843647,129.2235717
유성여자고등학교,고등학교,경상북도 포항시 북구 우현동 205-2,36.05753306,129.3606512
포항항도중학교,중학교,경상북도 포항시 북구 죽도동 655-9,36.01868959,129.355871
문학정보고등학교,고등학교,인천광역시 미추홀구 문학동 394-4,37.43556386,126.6865636
고양국제고등학교,고등학교,경기도 고양시 일산동구 식사동 1483,37.68424341,126.8085202
고양외국어고등학교,고등학교,경기도 고양시 덕양구 관산동 332,37.6902292,126.8610736
고잔고등학교,고등학교,경기도 안산시 단원구 고잔동 776-1,37.30856413,126.8352308
장안제일고등학교,고등학교,부산광역시 기장군 장안읍 좌천리 323,35.31493829,129.2407786
대구시지초등학교,초등학교,대구광역시 수성구 매호동 1332-1,35.84415737,128.7032429
가야고등학교,고등학교,부산광역시 부산진구 가야동 산33-3,35.14654871,129.0315897
유신고등학교,고등학교,경기도 수원시 팔달구 우만동 9-1,37.28315335,127.0406562
청천초등학교,초등학교,충청북도 괴산군 청천면 청천리 77-1,36.66121094,127.7374275
칠성초등학교,초등학교,충청북도 괴산군 칠성면 도정리 311,36.78564178,127.8623577
창포중학교,중학교,경상북도 포항시 북구 창포동 647,36.06581629,129.3687923
동지중학교,중학교,경상북도 포항시 북구 용흥동 산 125-3,36.0365713,129.3444168
대동중학교,중학교,경상북도 포항시 북구 우현동 201-6,36.05850588,129.3583782
포항제철중학교,중학교,경상북도 포항시 남구 지곡동 52,36.02030606,129.3264937
연수고등학교,고등학교,인천광역시 연수구 연수동 632-1,37.41150384,126.6798783
옥산초등학교,초등학교,전라북도 군산시 옥산면 옥산리 30,35.94015486,126.7489432
왕방초등학교,초등학교,경기도 포천시 신북면 가채리 819-15,37.9042268,127.2023337
신북초등학교,초등학교,경기도 포천시 신북면 신평리 361-3,37.93839548,127.220236
창수초등학교,초등학교,경기도 포천시 창수면 추동리 117-2,37.98976311,127.1819653
가평마장초등학교,초등학교,경기도 가평군 가평읍 마장리 357,37.86007476,127.5146007
가평초등학교,초등학교,경기도 가평군 가평읍 읍내리 553,37.83074316,127.5074893
대보중학교,중학교,경상북도 포항시 남구 호미곶면 대보리 214,36.075265,129.5675808
순천매산중학교,중학교,전라남도 순천시 매곡동 147-6,34.95825235,127.481255
인동중학교,중학교,경상북도 구미시 인의동 103,36.1089818,128.4284438
여도중학교,중학교,전라남도 여수시 봉계동 37,34.78514348,127.694149
화양중학교,중학교,전라남도 여수시 화양면 나진리 701,34.70787512,127.6038586
율촌중학교,중학교,전라남도 여수시 율촌면 조화리 136-6,34.880071,127.5741682
화양중학교화양남분교장,중학교,전라남도 여수시 화양면 장수리 70,34.6465205,127.6118701
동암초등학교,초등학교,경기도 의정부시 장암동 37-52,37.72314428,127.0540315
광숭초등학교,초등학교,경기도 양주시 삼숭동 186-6,37.80164631,127.1070857
학산여자고등학교,고등학교,부산광역시 동래구 명장동 산 85-6,35.20510793,129.0964667
덕적고등학교,고등학교,인천광역시 옹진군 덕적면 진리 136,37.22591646,126.1475601
남한고등학교,고등학교,경기도 하남시 덕풍동 450,37.53652206,127.2030129
배양초등학교,초등학교,경기도 화성시 배양동 76,37.21861608,126.9892182
신흥고등학교,고등학교,경기도 동두천시 안흥동 36,37.9298638,127.0475415
죽전초등학교,초등학교,경기도 용인시 수지구 죽전동 513-1,37.33374032,127.1103872
고림초등학교,초등학교,경기도 용인시 처인구 고림동 340-2,37.24713613,127.2273802
전남예술고등학교,고등학교,전라남도 무안군 삼향읍 유교리 1055-8,34.84682134,126.429635
경북과학고등학교,고등학교,경상북도 포항시 북구 용흥동 418-1,36.04675984,129.352811
포항예술고등학교,고등학교,경상북도 포항시 북구 흥해읍 대련리 449,36.05191767,129.3152074
기계중학교,중학교,경상북도 포항시 북구 기계면 현내리 1089,36.07751771,129.1962904
안천중학교,중학교,전라북도 진안군 안천면 백화리 875-1,35.90005594,127.5596597
용담중학교,중학교,전라북도 진안군 용담면 송풍리 1002,35.96478246,127.5184592
화원고등학교,고등학교,대구광역시 달성군 화원읍 설화리 553-13,35.79749168,128.4887843
인일여자고등학교,고등학교,인천광역시 중구 전동 25-4,37.47772133,126.6269008
서룡초등학교,초등학교,경기도 용인시 처인구 역북동 416,37.23758537,127.1870731
평택안일초등학교,초등학교,경기도 평택시 안중읍 현화리 845-1 평택안일초등학교,36.98265533,126.9240973
가사초등학교,초등학교,경기도 평택시 현덕면 권관리 2-43,36.93829679,126.9168058
경북예술고등학교,고등학교,대구광역시 남구 대명동 1804-1,35.85458674,128.5883277
화암고등학교,고등학교,울산광역시 동구 방어동 1053,35.47682875,129.4093972
가거도초등학교신안흑산중학교가거도분교장,중학교,전라남도 신안군 흑산면 가거도리 266,34.05293772,125.1304002
달천고등학교,고등학교,울산광역시 북구 달천동 1-17,35.63203254,129.3283732
양주백석고등학교,고등학교,경기도 양주시 백석읍 오산리 554,37.7916117,126.9866381
포천고등학교,고등학교,경기도 포천시 신읍동 345,37.89281096,127.1917352
송우고등학교,고등학교,경기도 포천시 소흘읍 송우리 728-8,37.82965333,127.1387142
영북고등학교,고등학교,경기도 포천시 영북면 운천리 334-3,38.08632668,127.2763173
가평고등학교,고등학교,경기도 가평군 가평읍 대곡리 113,37.8180191,127.5132323
충무여자중학교,중학교,경상남도 통영시 인평동 385,34.84143652,128.395492
대촌중앙초등학교,초등학교,광주광역시 남구 지석동 223-1,35.08249255,126.8331165
간디고등학교,고등학교,경상남도 산청군 신안면 외송리 122,35.35819037,127.9443855
송도중학교,중학교,경상북도 포항시 남구 송도동 492-1,36.02874322,129.3772502
동진중학교,중학교,경상남도 창원시 진해구 자은동 793-7,35.14400332,128.7060725
서원고등학교,고등학교,경기도 용인시 수지구 상현동 836,37.3024074,127.0817551
가락고등학교,고등학교,서울특별시 송파구 송파동 172,37.50123222,127.1169042
자은중학교,중학교,전라남도 신안군 자은면 구영리 120,34.88817128,126.0432281
비금중학교,중학교,전라남도 신안군 비금면 덕산리 714,34.7601378,125.924372
석성초등학교,초등학교,경기도 용인시 기흥구 중동 955,37.26994108,127.1582448
남양주양정초등학교,초등학교,경기도 남양주시 다산동 3099-43,37.60910575,127.1659962
장내초등학교,초등학교,경기도 남양주시 평내동 563,37.64098204,127.2348507
진건초등학교,초등학교,경기도 남양주시 진건읍 용정리 780-1,37.65761963,127.1791003
가곡초등학교,초등학교,경기도 남양주시 화도읍 가곡리 279-21,37.68406011,127.3062332
금남초등학교,초등학교,경기도 남양주시 화도읍 금남리 372,37.64398208,127.3623342
인천정보산업고등학교,고등학교,인천광역시 중구 율목동 1-27,37.4705373,126.6361791
형남중학교,중학교,경상북도 구미시 형곡동 803-2,36.10164623,128.3362372
답내초등학교,초등학교,경기도 남양주시 화도읍 답내리 270-2,37.66245076,127.3469545
남양주송라초등학교,초등학교,경기도 남양주시 화도읍 마석우리 590,37.65423571,127.3016823
한국바이오마이스터고등학교,고등학교,충청북도 진천군 진천읍 교성리 166,36.85184227,127.4396955
충북반도체고등학교,고등학교,충청북도 음성군 금왕읍 금석리 103,36.99456018,127.6062059
인천영흥고등학교,고등학교,인천광역시 옹진군 영흥면 내리 496-95,37.26521102,126.479282
순천팔마중학교,중학교,전라남도 순천시 해룡면 상삼리 385,34.94812674,127.5344205
창신중학교,중학교,경상남도 창원시 마산회원구 봉암동 511-8,35.22438269,128.5974998
운중고등학교,고등학교,경기도 성남시 분당구 운중동 957,37.39259657,127.0736445
현암고등학교,고등학교,경기도 용인시 수지구 죽전동 1354,37.3289102,127.1322221
대지고등학교,고등학교,경기도 용인시 수지구 죽전동 1333,37.32509747,127.1222801
수지고등학교,고등학교,경기도 용인시 수지구 풍덕천동 688,37.33101692,127.0922855
진명여자고등학교,고등학교,서울특별시 양천구 목동 927-6,37.52381306,126.8661298
가평초등학교,초등학교,충청북도 단양군 매포읍 가평리 181-2,37.07250387,128.2825667
가곡초등학교,초등학교,충청북도 단양군 가곡면 사평리 435,37.02748095,128.3850832
가야여자중학교,중학교,부산광역시 부산진구 가야동 414-14,35.14811295,129.0364936
연성중학교,중학교,인천광역시 연수구 동춘동 923-7,37.40870779,126.6772051
가현초등학교,초등학교,경기도 김포시 장기동 2065-3,37.63801805,126.6738664
청림초등학교,초등학교,경상북도 포항시 남구 청림동 950,35.99533183,129.4044994
포항동부초등학교,초등학교,경상북도 포항시 북구 두호동 1065,36.06293098,129.3805148
양학초등학교,초등학교,경상북도 포항시 북구 학잠동 191,36.03193049,129.3444333
포항중앙여자고등학교,고등학교,경상북도 포항시 북구 우현동 436,36.06389846,129.3479142
영해고등학교,고등학교,경상북도 영덕군 영해면 괴시리 115,36.54223888,129.412914
매현초등학교,초등학교,경기도 수원시 영통구 매탄동 1278,37.25648403,127.0416924
순심여자고등학교,고등학교,경상북도 칠곡군 왜관읍 왜관리 776-9,35.98590985,128.3961452
약목고등학교,고등학교,경상북도 칠곡군 약목면 무림리 1119,36.02688675,128.3718288
가야중학교,중학교,경상남도 김해시 내동 1137-3,35.23705465,128.8703302
풍동고등학교,고등학교,경기도 고양시 일산동구 풍동 1231,37.67167332,126.7953055
백석고등학교,고등학교,경기도 고양시 일산동구 마두동 784,37.65253387,126.7871944
충무중학교,중학교,경상남도 통영시 인평동 386-3,34.8406398,128.3965378
광주경신중학교,중학교,광주광역시 북구 용봉동 718-1,35.17500055,126.8916294
곡정초등학교,초등학교,경기도 수원시 권선구 권선동 1358,37.24086034,127.026042
성지중학교,중학교,대구광역시 달서구 이곡동 1300-2,35.85318506,128.5147109
각화초등학교,초등학교,광주광역시 북구 각화동 215,35.18199017,126.9361644
농서초등학교,초등학교,울산광역시 북구 달천동 1-19,35.63176905,129.3299606
고잔초등학교,초등학교,경기도 안산시 단원구 고잔동 581,37.32429737,126.8272299
가야초등학교,초등학교,경상남도 함안군 가야읍 도항리 88-1,35.27806804,128.4024585
숭덕여자중학교,중학교,인천광역시 남동구 만수동 5-213,37.46432045,126.7347833
해성고등학교,고등학교,경상남도 거제시 장승포동 402,34.87036546,128.7235551
서울과학고등학교,고등학교,서울특별시 종로구 혜화동 1-1,37.59172336,126.9981214
충렬초등학교,초등학교,경상남도 통영시 명정동 173,34.84719965,128.4162414
인평초등학교,초등학교,경상남도 통영시 인평동 333-2,34.84220495,128.3948287
유영초등학교,초등학교,경상남도 통영시 북신동 106-2,34.8513374,128.4266292
대전가양중학교,중학교,대전광역시 동구 가양동 36-2,36.3503086,127.447793
대성여자고등학교,고등학교,대전광역시 동구 가양동 309-3,36.33756834,127.4402262
담양고서중학교,중학교,전라남도 담양군 고서면 성월리 2-42,35.2233401,126.9781947
평택초등학교,초등학교,경기도 평택시 평택동 110-2,36.98938929,127.0811492
평택중앙초등학교,초등학교,경기도 평택시 세교동 186-1,37.00204008,127.0777503
인천안남초등학교,초등학교,인천광역시 계양구 계산동 34-2,37.54074432,126.7322585
가회초등학교,초등학교,경상남도 합천군 가회면 덕촌리 389,35.43606988,128.0345499
하례초등학교,초등학교,제주특별자치도 서귀포시 남원읍 하례리 326,33.26444087,126.6308696
인천왕길초등학교,초등학교,인천광역시 서구 왕길동 649-3,37.60198104,126.6512011
인천가좌초등학교,초등학교,인천광역시 서구 가좌동 30-87,37.49024922,126.6842846
동삼초등학교,초등학교,부산광역시 영도구 동삼동 258,35.07948739,129.0735108
인천금마초등학교,초등학교,인천광역시 부평구 구산동 357,37.47847426,126.7491952
인천상정초등학교,초등학교,인천광역시 부평구 십정동 198,37.47955039,126.698616
인천갈월초등학교,초등학교,인천광역시 부평구 갈산동 373,37.50979926,126.7252034
임학중학교,중학교,인천광역시 계양구 병방동 432-2,37.54602183,126.7404527
인천삼목초등학교,초등학교,인천광역시 중구 운서동 2708-2,37.49866348,126.4861409
인천창영초등학교,초등학교,인천광역시 동구 창영동 30,37.47158502,126.6393466
인천송림초등학교,초등학교,인천광역시 동구 송림동 235-1,37.47403081,126.6373465
인천숭의초등학교,초등학교,인천광역시 미추홀구 숭의동 42-2,37.46311712,126.6552572
인천용현초등학교,초등학교,인천광역시 미추홀구 용현동 610-108,37.45311116,126.6414555
인천부평남초등학교,초등학교,인천광역시 부평구 부평동 743-1,37.48824929,126.720447
충주대원고등학교,고등학교,충청북도 충주시 안림동 493,36.97183189,127.9510241
포항여자고등학교,고등학교,경상북도 포항시 북구 학산동 243,36.05058527,129.3648068
두호고등학교,고등학교,경상북도 포항시 북구 두호동 1106,36.06251331,129.3733437
포항중앙고등학교,고등학교,경상북도 포항시 북구 우현동 441,36.06496062,129.3487818
지곡초등학교,초등학교,경기도 용인시 기흥구 지곡동 703,37.25199277,127.1383905
동막초등학교,초등학교,경기도 용인시 기흥구 동백동 576,37.2859082,127.1556652
석곶초등학교,초등학교,경기도 파주시 동패동 1700,37.72505552,126.7222525
문발초등학교,초등학교,경기도 파주시 문발동 555,37.72569799,126.7067917
지산초등학교,초등학교,경기도 파주시 와동동 1339-5,37.73136008,126.7617476
한가람초등학교,초등학교,경기도 파주시 와동동 1318,37.73188383,126.7558625
서울신당초등학교,초등학교,서울특별시 중구 신당동 161-2,37.56385487,127.0237242
개원초등학교,초등학교,부산광역시 부산진구 개금동 1-18,35.16492078,129.0286118
탄현초등학교,초등학교,경기도 파주시 탄현면 축현리 489-1,37.80298879,126.7178692
연풍초등학교,초등학교,경기도 파주시 파주읍 연풍리 427,37.83073547,126.8347121
웅담초등학교,초등학교,경기도 파주시 법원읍 웅담리 387-1,37.91397882,126.8956549
마정초등학교,초등학교,경기도 파주시 문산읍 마정리 540,37.89186524,126.7603289
파양초등학교,초등학교,경기도 파주시 문산읍 이천리 249-1,37.86130053,126.8368908
적서초등학교,초등학교,경기도 파주시 적성면 식현리 54-1,37.95075529,126.8964478
마지초등학교,초등학교,경기도 파주시 적성면 마지리 60-4,37.9525286,126.9195994
적암초등학교,초등학교,경기도 파주시 적성면 적암리 83-2,37.9873853,127.0041955
군내초등학교,초등학교,경기도 파주시 군내면 백연리 480-152,37.90545378,126.7317189
한빛초등학교,초등학교,경기도 파주시 야당동 983,37.71465004,126.7509672
덕암초등학교,초등학교,경기도 파주시 조리읍 뇌조리 457-1,37.76474073,126.8196307
파주대원초등학교,초등학교,경기도 파주시 조리읍 대원리 203,37.72724665,126.8192952
봉일천초등학교,초등학교,경기도 파주시 조리읍 봉일천리 191-6 봉일천초등학교,37.74502843,126.8072467
교하초등학교,초등학교,경기도 파주시 교하동 337,37.75386781,126.747313
청암초등학교,초등학교,경기도 파주시 목동동 114-46,37.73098101,126.7378741
청북초등학교,초등학교,경기도 평택시 청북읍 현곡리 221,37.04333301,126.9350763
청옥초등학교,초등학교,경기도 평택시 청북읍 옥길리 1103,37.0190794,126.9117446
삼덕초등학교,초등학교,경기도 평택시 청북읍 삼계리 529,37.04003429,126.9119034
갈곶초등학교,초등학교,경기도 평택시 진위면 갈곶리 240-6,37.12550341,127.0719771
창신초등학교,초등학교,경기도 평택시 오성면 신리 59-1,37.00422529,127.0065025
안중초등학교,초등학교,경기도 평택시 안중읍 안중리 247-4,36.98954472,126.9257589
이화여자대학교 사범대학부속 이화·금란중학교,중학교,서울특별시 서대문구 대신동 47,37.56264282,126.9442141
예당고등학교,고등학교,경기도 화성시 석우동 61,37.20822231,127.0802397
화성고등학교,고등학교,경기도 화성시 향남읍 장짐리 161 화성고등학교,37.13930016,126.9066044
해솔초등학교,초등학교,경기도 파주시 목동동 664,37.72666542,126.7471924
심학초등학교,초등학교,경기도 파주시 동패동 1079,37.70799984,126.7040936
두일초등학교,초등학교,경기도 파주시 동패동 1743 두일초등학교,37.71983468,126.7135856
파주와동초등학교,초등학교,경기도 파주시 와동동 1348-1,37.72658481,126.756609
동패초등학교,초등학교,경기도 파주시 동패동 1795,37.71738974,126.7403715
원당초등학교,초등학교,충청북도 음성군 감곡면 원당리 159-1,37.0739536,127.615542
소이초등학교,초등학교,충청북도 음성군 소이면 금고리 68,36.91529588,127.7552839
무풍고등학교,고등학교,전라북도 무주군 무풍면 현내리 503,35.96726214,127.8464687
감포고등학교,고등학교,경상북도 경주시 감포읍 오류리 478-2,35.81095926,129.5062519
안강여자고등학교,고등학교,경상북도 경주시 안강읍 산대리 1859,35.99263139,129.2117867
무산고등학교,고등학교,경상북도 경주시 건천읍 천포리 636,35.84515271,129.0967972
상지여자중학교,중학교,경상북도 상주시 함창읍 오동리 635,36.5692816,128.1850993
가곡초등학교보발분교장,초등학교,충청북도 단양군 가곡면 보발리 711-1,37.02909488,128.4487532
송산고등학교,고등학교,경기도 화성시 송산면 사강리 625,37.21576002,126.7382371
경민고등학교,고등학교,경기도 의정부시 가능동 562-1,37.7472703,127.0248351
금촌고등학교,고등학교,경기도 파주시 금릉동 451,37.75024845,126.7784996
호원고등학교,고등학교,경기도 의정부시 호원동 226-154 호원고등학교,37.70489477,127.0446122
장성중앙초등학교,초등학교,전라남도 장성군 장성읍 영천리 880,35.2988072,126.7868584
서울여자상업고등학교,고등학교,서울특별시 관악구 봉천동 1695,37.47240474,126.9506004
북삼고등학교,고등학교,경상북도 칠곡군 북삼읍 인평리 694-1,36.07159861,128.3342189
울진고등학교,고등학교,경상북도 울진군 울진읍 연지리 781,36.99771705,129.4055736
남산중학교,중학교,경상북도 상주시 낙양동 388,36.40655938,128.1447302
가곡고등학교,고등학교,강원도 삼척시 가곡면 오저리 88,37.1458644,129.2055881
간동중학교,중학교,강원도 화천군 간동면 유촌리 608-1,38.05634052,127.7922873
문시초등학교,초등학교,경기도 오산시 금암동 518,37.17407031,127.0457461
충훈고등학교,고등학교,경기도 안양시 만안구 석수동 595-3,37.41081461,126.8931377
점촌고등학교,고등학교,경상북도 문경시 모전동 620,36.59585406,128.1819467
가은고등학교,고등학교,경상북도 문경시 가은읍 왕능리 218,36.64396299,128.0716015
금성고등학교,고등학교,경상북도 의성군 금성면 탑리리 582,36.25460577,128.6888961
안계고등학교,고등학교,경상북도 의성군 안계면 용기리 810,36.38339339,128.4328254
가온고등학교,고등학교,경기도 안성시 발화동 215-7,36.98862997,127.2760218
저현고등학교,고등학교,경기도 고양시 일산동구 식사동 1552,37.67751355,126.8159566
장락초등학교,초등학교,충청북도 제천시 장락동 626,37.15415895,128.2226288
송학초등학교,초등학교,충청북도 제천시 송학면 시곡리 1164-2,37.1855178,128.2624006
충무고등학교,고등학교,경상남도 통영시 북신동 338,34.85372483,128.4244872
광혜원중학교,중학교,충청북도 진천군 광혜원면 광혜원리 520,36.9910028,127.4402292
가람초등학교,초등학교,경기도 고양시 덕양구 행신동 926,37.62339722,126.8421894
가운초등학교,초등학교,경기도 남양주시 다산동 677,37.60070766,127.1557955
금교초등학교,초등학교,경기도 남양주시 다산동 4002-17,37.61390333,127.1614686
구룡초등학교,초등학교,경기도 남양주시 호평동 722,37.65813457,127.2526276
판곡초등학교,초등학교,경기도 남양주시 호평동 713,37.66004046,127.2420452
호평초등학교,초등학교,경기도 남양주시 호평동 378-1,37.6677558,127.2466483
남양주신촌초등학교,초등학교,경기도 남양주시 평내동 600,37.64540304,127.2397661
남양주백봉초등학교,초등학교,경기도 남양주시 평내동 607,37.64375892,127.2414972
남양주금곡초등학교,초등학교,경기도 남양주시 금곡동 159-7,37.63556462,127.2112259
남양주동곡초등학교,초등학교,경기도 남양주시 금곡동 624,37.62860418,127.2038561
화성초등학교,초등학교,경기도 오산시 수청동 47-1,37.16460696,127.0686823
매홀초등학교,초등학교,경기도 오산시 수청동 534-1,37.16247674,127.0636402
매홀중학교,중학교,경기도 오산시 수청동 634,37.16786485,127.0685048
관양고등학교,고등학교,경기도 안양시 동안구 관양동 523-4,37.40840136,126.9602128
고양용현초등학교,초등학교,경기도 고양시 덕양구 행신동 770,37.61486974,126.8381305
행남초등학교,초등학교,경기도 고양시 덕양구 행신동 789,37.61478697,126.8425493
성신초등학교,초등학교,경기도 고양시 덕양구 행신동 929,37.62659539,126.8403046
행신초등학교,초등학교,경기도 고양시 덕양구 행신동 983-1,37.62170632,126.8369934
화순도암중학교,중학교,전라남도 화순군 도암면 원천리 829,34.93821202,126.8952396
여수여자고등학교,고등학교,전라남도 여수시 관문동 103,34.74193383,127.7453582
남양주미금초등학교,초등학교,경기도 남양주시 다산동 4028-14,37.60873294,127.1541079
고양관산초등학교,초등학교,경기도 고양시 덕양구 관산동 995,37.69192172,126.8665469
나주고등학교,고등학교,전라남도 나주시 교동 118,35.0303015,126.7111627
해성여자고등학교,고등학교,서울특별시 동대문구 전농동 90-3,37.58123233,127.0566721
청산고등학교,고등학교,충청북도 옥천군 청산면 백운리 333-1,36.34899774,127.7944811
황간고등학교,고등학교,충청북도 영동군 황간면 남성리 409,36.2346775,127.9100561
영주초등학교,초등학교,경상북도 영주시 영주동 26,36.82879964,128.6244296
영일초등학교,초등학교,경상북도 영주시 영주동 486,36.82601466,128.6145493
봉황초등학교,초등학교,전라남도 나주시 봉황면 죽석리 771,34.95667541,126.7885259
이충고등학교,고등학교,경기도 평택시 이충동 657,37.0574423,127.0647293
문화고등학교,고등학교,경상북도 경주시 충효동 717,35.85323177,129.168593
석관고등학교,고등학교,서울특별시 성북구 석관동 77-1,37.6096418,127.0665343
구미왕산초등학교,초등학교,경상북도 구미시 임은동 207,36.08607706,128.3649342
구미오산초등학교,초등학교,경상북도 구미시 오태동 618-1,36.07231774,128.3527493
소천초등학교두음분교장,초등학교,경상북도 봉화군 소천면 두음리 352,36.88601761,129.0554955
양청고등학교,고등학교,충청북도 청주시 청원구 오창읍 양청리 656-2,36.72648683,127.4343554
가내초등학교,초등학교,경기도 평택시 죽백동 738,37.00672257,127.1140492
경북항공고등학교,고등학교,경상북도 영주시 풍기읍 교촌리 147-1,36.88092556,128.5253618
청하중학교,중학교,경상북도 포항시 북구 청하면 덕성리 384-1,36.1940938,129.3348212
봉성초등학교,초등학교,경상북도 봉화군 봉성면 봉성리 526-1,36.88547193,128.8148779
황간초등학교,초등학교,충청북도 영동군 황간면 남성리 164-1,36.22712683,127.9129123
매곡초등학교,초등학교,충청북도 영동군 매곡면 노천리 53-1,36.19245754,127.9321082
성암초등학교,초등학교,충청북도 진천군 진천읍 사석리 679-2,36.82662674,127.4065444
백곡초등학교,초등학교,충청북도 진천군 백곡면 구수리 21-1,36.88579291,127.3598971
가사초등학교,초등학교,충청남도 서산시 부석면 가사리 378,36.75270406,126.3710795
금구초등학교,초등학교,충청북도 진천군 이월면 내촌리 579,36.9451216,127.4300555
송추초등학교,초등학교,경기도 양주시 장흥면 교현리 119,37.71594276,126.9708136
지례초등학교부항분교장,초등학교,경상북도 김천시 부항면 월곡리 147,35.98680317,127.9416473
덕천초등학교,초등학교,경기도 안양시 만안구 안양동 192-5,37.391368,126.9361754
가남초등학교,초등학교,충청남도 청양군 비봉면 록평리 29,36.51685833,126.7882266
안양동초등학교,초등학교,전라남도 장흥군 안양면 수문리 359-2,34.63427337,127.0255541
용산초등학교,초등학교,전라남도 장흥군 용산면 접정리 376,34.61312935,126.9148779
강진중앙초등학교,초등학교,전라남도 강진군 강진읍 평동리 215-1,34.63635017,126.7666398
마량초등학교,초등학교,전라남도 강진군 마량면 마량리 1028-3,34.45606956,126.8115521
미림여자정보과학고등학교,고등학교,서울특별시 관악구 신림동 1557-1,37.46644063,126.9327248
상운초등학교,초등학교,경상북도 봉화군 상운면 가곡리 419-3,36.83020034,128.7540235
물야초등학교,초등학교,경상북도 봉화군 물야면 오록리 545-3,36.97954016,128.7368629
법전중앙초등학교,초등학교,경상북도 봉화군 법전면 법전리 39-3,36.91446603,128.8774835
교동초등학교,초등학교,충청북도 청주시 상당구 용암동 2084,36.61035535,127.5108844
수한초등학교,초등학교,충청북도 보은군 수한면 소계리 17-2,36.45845689,127.7009566
죽향초등학교,초등학교,충청북도 옥천군 옥천읍 문정리 83,36.31357842,127.577496
가납초등학교,초등학교,경기도 양주시 광적면 가납리 799-2,37.81929328,126.9830454
효촌초등학교,초등학교,경기도 양주시 광적면 덕도리 755,37.85795413,126.9629809
선단초등학교,초등학교,경기도 포천시 선단동 765-1,37.86164243,127.1553556
성호고등학교,고등학교,경기도 오산시 원동 605,37.13908552,127.0823978
청계초등학교,초등학교,전라남도 무안군 청계면 상마리 36-1,34.9255386,126.4290025
안양초등학교,초등학교,전라남도 장흥군 안양면 운흥리 508,34.65187457,126.9732809
송라초등학교,초등학교,경상북도 포항시 북구 송라면 광천리 189-5,36.22840603,129.3558449
장기초등학교모포분교장,초등학교,경상북도 포항시 남구 장기면 모포리 95,35.93456914,129.5232526
죽장초등학교,초등학교,경상북도 포항시 북구 죽장면 입암리 730-1,36.1595594,129.0913254
경주초등학교,초등학교,경상북도 경주시 충효동 3012,35.84261451,129.1895504
불국사초등학교,초등학교,경상북도 경주시 구정동 392-2,35.77806432,129.3010162
청명고등학교,고등학교,경기도 수원시 영통구 영통동 956-1,37.26076842,127.0766686
김천동신초등학교,초등학교,경상북도 김천시 신음동 1308,36.13152833,128.1214285
신녕초등학교,초등학교,경상북도 영천시 신녕면 화성리 714,36.04688085,128.7892201
이전초등학교,초등학교,경상북도 청송군 부동면 이전리 1176-1,36.35757565,129.1543823
가림초등학교,초등학교,경기도 광명시 하안동 297,37.45831792,126.8791167
소태초등학교,초등학교,충청북도 충주시 소태면 오량리 199,37.11082955,127.8464661
가흥초등학교,초등학교,충청북도 충주시 중앙탑면 가흥리 582-8,37.07658458,127.8532689
가수초등학교,초등학교,경기도 오산시 가수동 9-1,37.14801313,127.0477425
필봉초등학교,초등학교,경기도 오산시 금암동 486,37.17860367,127.0525679
구림초등학교,초등학교,전라남도 영암군 군서면 동구림리 93-1,34.7635044,126.6320609
장천초등학교,초등학교,전라남도 영암군 서호면 장천리 573,34.75591879,126.5819561
학산초등학교,초등학교,전라남도 영암군 학산면 금계리 471-1,34.72028675,126.596822
대가초등학교,초등학교,경상북도 성주군 대가면 옥련리 533,35.90858991,128.2220195
가포초등학교,초등학교,경상남도 창원시 마산합포구 가포동 418,35.15921481,128.5755095
간중초등학교,초등학교,전라북도 완주군 용진읍 간중리 616-1,35.89067206,127.1808637
가정고등학교,고등학교,인천광역시 서구 석남동 111-114,37.51380448,126.6796524
가림고등학교,고등학교,인천광역시 서구 가좌동 30-92,37.49250048,126.6809319
가좌고등학교,고등학교,인천광역시 서구 가좌동 230,37.48911101,126.6807879
검단고등학교,고등학교,인천광역시 서구 마전동 249-16,37.60373485,126.665201
동오초등학교,초등학교,경기도 의정부시 신곡동 669-3,37.74433668,127.0585845
송양초등학교,초등학교,경기도 의정부시 낙양동 753,37.75281878,127.1117452
민락초등학교,초등학교,경기도 의정부시 민락동 692-2,37.74180858,127.0947772
산서초등학교,초등학교,전라북도 장수군 산서면 동화리 208,35.58684091,127.3945546
행정초등학교,초등학교,충청북도 청주시 상당구 가덕면 행정리 29-1,36.53667287,127.5314946
각리초등학교,초등학교,충청북도 청주시 청원구 오창읍 각리 646-2,36.70686593,127.424059
대길초등학교,초등학교,충청북도 청주시 청원구 북이면 대길리 228,36.73239458,127.5589072
소양서초등학교,초등학교,전라북도 완주군 소양면 명덕리 1002,35.85908523,127.2101388
홍광초등학교,초등학교,충청북도 제천시 모산동 396-1,37.16466099,128.2157687
안내초등학교,초등학교,충청북도 옥천군 안내면 현리 115-2,36.39440664,127.6608798
증약초등학교,초등학교,충청북도 옥천군 군북면 증약리 641,36.33422206,127.5234718
덕과초등학교,초등학교,전라북도 남원시 덕과면 고정리 505-2,35.51377093,127.3537199
가경초등학교,초등학교,충청북도 청주시 흥덕구 복대동 2443,36.62438198,127.443757
초평초등학교,초등학교,충청북도 진천군 초평면 금곡리 593,36.84729742,127.5377751
구정초등학교,초등학교,충청북도 진천군 초평면 용산리 236-1,36.78039232,127.5351847
가천초등학교,초등학교,경상북도 성주군 가천면 창천리 574,35.88503251,128.1673803
원곡고등학교,고등학교,경기도 안산시 단원구 원곡동 965-1,37.33317101,126.7976889
성황초등학교,초등학교,전라남도 광양시 성황동 342,34.940269,127.6826688
가고파초등학교,초등학교,경상남도 창원시 마산회원구 양덕동 84-3,35.22558457,128.580473
영산포초등학교,초등학교,전라남도 나주시 이창동 178,34.99331336,126.7144228
경남간호고등학교,고등학교,경상남도 산청군 생비량면 가계리 526-1,35.35883058,128.0836577
국원고등학교,고등학교,충청북도 충주시 봉방동 72,36.9788987,127.920153
현도정보고등학교,고등학교,충청북도 청주시 서원구 현도면 죽암리 262,36.52097787,127.4364234
숙지고등학교,고등학교,경기도 수원시 팔달구 화서동 653 숙지고등학교,37.28280443,126.9932658
일로초등학교,초등학교,전라남도 무안군 일로읍 월암리 200,34.85062875,126.4948505
가남초등학교,초등학교,경기도 여주시 가남읍 태평리 74-1,37.20545519,127.5479877
상주동부초등학교,초등학교,경상북도 상주시 헌신동 301,36.41747599,128.2083973
영덕야성초등학교,초등학교,경상북도 영덕군 영덕읍 덕곡리 170,36.41309168,129.3686193
왕곡초등학교,초등학교,경기도 의왕시 왕곡동 604,37.34534985,126.9805897
대부고등학교,고등학교,경기도 안산시 단원구 대부북동 697-6,37.24775077,126.5781183
기흥고등학교,고등학교,경기도 용인시 기흥구 신갈동 161,37.28239089,127.1084763
동백고등학교,고등학교,경기도 용인시 기흥구 동백동 601,37.28308284,127.1587754
금신초등학교,초등학교,경기도 파주시 금촌동 369-1,37.76705468,126.7718109
금향초등학교,초등학교,경기도 파주시 금촌동 1007,37.75251184,126.7769419
검산초등학교,초등학교,경기도 파주시 검산동 548-2,37.77610175,126.7394579
금촌초등학교,초등학교,경기도 파주시 금촌동 929-1,37.76179845,126.7697527
새금초등학교,초등학교,경기도 파주시 금촌동 1018,37.74807579,126.7731682
백신고등학교,고등학교,경기도 고양시 일산동구 백석동 1347,37.64228481,126.7815028
가평초등학교,초등학교,전라북도 고창군 신림면 가평리 639,35.47724218,126.7380346
청성초등학교,초등학교,충청북도 옥천군 청성면 산계리 234,36.32863648,127.7595375
이수초등학교,초등학교,충청북도 영동군 영동읍 계산리 485-1,36.17812993,127.7771157
광양제철초등학교,초등학교,전라남도 광양시 금호동 681,34.94556548,127.7296266
인평초등학교,초등학교,경상북도 칠곡군 북삼읍 인평리 656-1,36.07188465,128.3369162
용암초등학교,초등학교,충청북도 청주시 상당구 용암동 2103,36.61393913,127.5079441
율량초등학교,초등학교,충청북도 청주시 청원구 율량동 1034,36.6678438,127.4915042
갈담초등학교,초등학교,전라북도 임실군 강진면 갈담리 323-1,35.53143193,127.1656032
장야초등학교,초등학교,충청북도 옥천군 옥천읍 장야리 168,36.29655321,127.5799701
이양초등학교,초등학교,전라남도 화순군 이양면 이양리 317,34.88343278,126.9886164
아산초등학교,초등학교,전라남도 화순군 북면 이천리 55,35.16867823,127.1331876
은봉초등학교,초등학교,경기도 양주시 백석읍 복지리 303-8,37.78152028,126.9834835
신지초등학교,초등학교,경기도 양주시 백석읍 복지리 156,37.78818522,126.9905336
관산남초등학교,초등학교,전라남도 장흥군 관산읍 삼산리 97,34.52594351,126.954763
동양초등학교,초등학교,경상북도 봉화군 봉성면 동양리 459-3,36.91279506,128.7909061
명호초등학교,초등학교,경상북도 봉화군 명호면 도천리 195-3,36.85639031,128.8986744
송원초등학교,초등학교,경상북도 군위군 소보면 송원리 675,36.25373305,128.4765588
우보초등학교,초등학교,경상북도 군위군 우보면 이화리 1195-2,36.19522989,128.6606117
가락중학교,중학교,서울특별시 송파구 송파동 168,37.50221682,127.1183657
인천석정초등학교,초등학교,인천광역시 남동구 간석동 614-5,37.46708126,126.6962659
평일초등학교,초등학교,경기도 평택시 합정동 368-6,36.99008691,127.1071052
인천능내초등학교,초등학교,인천광역시 서구 마전동 267-1,37.6028992,126.6662012
문현중학교,중학교,서울특별시 송파구 장지동 838-3,37.4804857,127.1277763
경희여자고등학교,고등학교,서울특별시 동대문구 회기동 1-5,37.59467402,127.0509009
휘경여자고등학교,고등학교,서울특별시 동대문구 휘경동 43-7,37.58355605,127.0663086
와석초등학교,초등학교,경기도 파주시 야당동 1008,37.71047466,126.7531693
파주초등학교,초등학교,경기도 파주시 파주읍 파주리 492-3,37.83234761,126.8156589
천현초등학교,초등학교,경기도 파주시 법원읍 법원리 440-1,37.84917615,126.8780999
법원초등학교,초등학교,경기도 파주시 법원읍 법원리 500,37.8564142,126.8803199
삼보초등학교,초등학교,충청북도 증평군 증평읍 초중리 11-19,36.77801366,127.5790249
가람초등학교,초등학교,경상남도 진주시 상평동 278-1,35.17335697,128.1013275
인천남부초등학교,초등학교,인천광역시 미추홀구 주안동 1444,37.45036277,126.6764048
인천서화초등학교,초등학교,인천광역시 미추홀구 도화동 47-30,37.47424056,126.6604394
솔빛초등학교,초등학교,경기도 화성시 반송동 133,37.19659434,127.0736985
이곡초등학교,초등학교,경기도 포천시 소흘읍 이곡리 197,37.77826985,127.1488568
추산초등학교,초등학교,경기도 포천시 소흘읍 송우리 728-11,37.82576436,127.1367147
삼정초등학교,초등학교,울산광역시 울주군 청량읍 삼정리 786-2,35.49083529,129.2335528
대양초등학교,초등학교,경상남도 합천군 대양면 덕정리 898-4,35.51778765,128.1725343
전동중학교,중학교,서울특별시 동대문구 휘경동 49-295,37.58536429,127.0711298
월곡중학교,중학교,서울특별시 성북구 상월곡동 35-1,37.60671251,127.0481681
갈래초등학교,초등학교,강원도 정선군 고한읍 고한리 31,37.1947463,128.8664111
한수초등학교,초등학교,경기도 고양시 일산서구 주엽동 116,37.6690014,126.7574446
가좌초등학교,초등학교,경기도 고양시 일산서구 가좌동 1099,37.68839777,126.7209537
가양초등학교,초등학교,경기도 남양주시 수동면 수산리 12-2,37.73302813,127.2934794
장자초등학교,초등학교,경기도 구리시 교문동 824,37.58668421,127.1354141
내양초등학교,초등학교,경기도 구리시 사노동 393-2,37.64037067,127.1394163
구봉초등학교,초등학교,경기도 화성시 병점동 862,37.20549114,127.0449649
화산초등학교,초등학교,경기도 화성시 송산동 146-9,37.21086652,127.0141226
갈담초등학교,초등학교,경기도 화성시 봉담읍 유리 86,37.17498211,126.9330596
솔개초등학교,초등학교,경기도 용인시 수지구 상현동 841,37.30532839,127.0819452
용인심곡초등학교,초등학교,경기도 용인시 수지구 상현동 871,37.30901803,127.0790012
서원초등학교,초등학교,경기도 용인시 수지구 상현동 826,37.30351798,127.0785606
낙성초등학교,초등학교,전라남도 보성군 벌교읍 낙성리 42-1,34.87632252,127.3145481
오음초등학교,초등학교,강원도 화천군 간동면 오음리 248,38.05442088,127.8215166
모당초등학교,초등학교,경기도 고양시 일산동구 중산동 1684,37.67953059,126.7813027
하늘초등학교,초등학교,경기도 고양시 일산동구 중산동 1799,37.67725179,126.7901368
풍동초등학교,초등학교,경기도 고양시 일산동구 풍동 1266,37.66939596,126.802608
도곡초등학교,초등학교,전라남도 화순군 도곡면 천암리 191,35.01355618,126.9086474
태봉초등학교,초등학교,경기도 포천시 소흘읍 송우리 725-4,37.83451863,127.1448833
송우초등학교,초등학교,경기도 포천시 소흘읍 송우리 214,37.82951615,127.1433847
축석초등학교,초등학교,경기도 포천시 소흘읍 이동교리 645,37.78819235,127.1221079
정교초등학교,초등학교,경기도 포천시 가산면 정교리 549-2,37.81524287,127.1696832
손곡초등학교,초등학교,경기도 용인시 수지구 동천동 867,37.33643688,127.0952222
저동초등학교,초등학교,경기도 고양시 일산동구 정발산동 688,37.66787036,126.7742276
벽제초등학교,초등학교,경기도 고양시 일산동구 사리현동 122-2,37.69586113,126.8435253
성석초등학교,초등학교,경기도 고양시 일산동구 문봉동 203-6,37.70722736,126.8122184
백마초등학교,초등학교,경기도 고양시 일산동구 마두동 718,37.65747524,126.7910808
정발초등학교,초등학교,경기도 고양시 일산동구 마두동 758,37.65548252,126.7839167
장승초등학교,초등학교,경기도 남양주시 진접읍 장현리 49-10,37.73008598,127.1955462
장현초등학교,초등학교,경기도 남양주시 진접읍 장현리 379,37.71917284,127.1821886
광릉초등학교,초등학교,경기도 남양주시 진접읍 팔야리 762,37.74560893,127.2072701
남양주양지초등학교,초등학교,경기도 남양주시 오남읍 양지리 70,37.69931963,127.2067872
가산초등학교,초등학교,경기도 포천시 가산면 마산리 406,37.84793067,127.1850433
내촌초등학교,초등학교,경기도 포천시 내촌면 내리 334-5,37.78688271,127.2300704
지현초등학교,초등학교,경기도 포천시 화현면 지현리 279-6,37.92859083,127.2648387
화현초등학교,초등학교,경기도 포천시 화현면 화현리 847-1,37.90189885,127.2846733
일동초등학교,초등학교,경기도 포천시 일동면 기산리 281-1,37.95492011,127.3145087
이동초등학교,초등학교,경기도 포천시 이동면 장암리 253-3,38.02860799,127.3684761
가평초등학교,초등학교,강원도 평창군 대화면 하안미리 417,37.4474981,128.4820416
마석초등학교,초등학교,경기도 남양주시 화도읍 창현리 517-1,37.64914601,127.3049483
교문초등학교,초등학교,경기도 구리시 교문동 732,37.59773629,127.133667
구리초등학교,초등학교,경기도 구리시 수택동 553,37.60076767,127.1478334
인창초등학교,초등학교,경기도 구리시 인창동 546-9,37.60476917,127.1318528
건원초등학교,초등학교,경기도 구리시 인창동 514,37.6072839,127.1356518
안산부곡초등학교,초등학교,경기도 안산시 상록구 부곡동 680,37.32902207,126.8601242
경수초등학교,초등학교,경기도 안산시 상록구 성포동 594-3,37.32699268,126.8506091
화봉초등학교,초등학교,경기도 남양주시 진접읍 금곡리 1078,37.71584179,127.1917528
풍양초등학교,초등학교,경기도 남양주시 진접읍 내각리 640-3,37.70191828,127.1616591
휘경여자중학교,중학교,서울특별시 동대문구 휘경동 43-7,37.58238274,127.0675665
덕산중학교,중학교,서울특별시 은평구 신사동 265-4,37.60184143,126.9043021
와부초등학교,초등학교,경기도 남양주시 와부읍 덕소리 75-5,37.58632573,127.2185385
덕소초등학교,초등학교,경기도 남양주시 와부읍 덕소리 431-1,37.58807549,127.2147157
남양주월문초등학교,초등학교,경기도 남양주시 와부읍 월문리 269-1,37.60913053,127.2618725
남양주도곡초등학교,초등학교,경기도 남양주시 와부읍 도곡리 산 46-7,37.57958287,127.2180881
동구초등학교,초등학교,경기도 구리시 인창동 664-3,37.60885085,127.1417158
구지초등학교,초등학교,경기도 구리시 인창동 666-3,37.60717932,127.1423239
수택초등학교,초등학교,경기도 구리시 토평동 1007,37.59193504,127.1524495
인천중앙초등학교,초등학교,인천광역시 연수구 연수동 579-1,37.41684064,126.6857833
인천동막초등학교,초등학교,인천광역시 연수구 동춘동 928-1,37.40281007,126.6743495
송북초등학교,초등학교,경기도 평택시 지산동 642,37.08024519,127.0654822
팽성초등학교,초등학교,경기도 평택시 팽성읍 송화리 233-1,36.95045037,127.051433
평택송화초등학교,초등학교,경기도 평택시 팽성읍 송화리 783-6,36.96283685,127.0568814
이사벨중학교,중학교,부산광역시 연제구 거제동 75-7,35.19387614,129.0781307
명진중학교,중학교,부산광역시 북구 화명동 2258,35.23958983,129.0096997
인천남촌초등학교,초등학교,인천광역시 남동구 남촌동 556-19,37.42964242,126.7134786
흥덕고등학교,고등학교,충청북도 청주시 흥덕구 복대동 2457,36.63674284,127.4239538
모현초등학교,초등학교,경기도 용인시 처인구 모현읍 매산리 224-1,37.34320946,127.2284867
장평초등학교,초등학교,경기도 용인시 처인구 백암면 장평리 658,37.11898675,127.3774784
인천상정중학교,중학교,인천광역시 부평구 십정동 128-4,37.47869265,126.6943685
진산중학교,중학교,인천광역시 부평구 삼산동 454-11,37.50938836,126.7406721
인천중학교,중학교,인천광역시 연수구 연수동 534-4,37.42131536,126.6895349
인천약산초등학교,초등학교,인천광역시 남동구 간석동 104-1,37.46742112,126.7100061
쌍령초등학교,초등학교,경기도 광주시 쌍령동 353-95,37.39882251,127.2811765
임진초등학교,초등학교,경기도 파주시 문산읍 문산리 21,37.85465105,126.7841897
문산동초등학교,초등학교,경기도 파주시 문산읍 선유리 788-1,37.8650991,126.7979175
영도초등학교,초등학교,경기도 파주시 월롱면 위전리 32-12,37.78729402,126.8036621
신산초등학교,초등학교,경기도 파주시 광탄면 신산리 199,37.78046572,126.8527673
도마산초등학교,초등학교,경기도 파주시 광탄면 창만리 80-8,37.80196187,126.8759862
갈현초등학교,초등학교,경기도 파주시 탄현면 갈현리 653-1,37.77140768,126.7169046
통일초등학교,초등학교,경기도 파주시 탄현면 법흥리 1719,37.77493368,126.7040057
주곡초등학교,초등학교,경기도 남양주시 진접읍 금곡리 1004,37.72468683,127.2059047
부개고등학교,고등학교,인천광역시 부평구 부개동 120-546,37.49241804,126.738616
제일고등학교,고등학교,인천광역시 부평구 십정동 576-1,37.478222,126.7089501
석정여자고등학교,고등학교,인천광역시 남동구 간석동 614-11,37.46872189,126.6944637
월성중학교,중학교,경상북도 경주시 충효동 549-6,35.84259695,129.1751134
창일중학교,중학교,서울특별시 도봉구 창동 369,37.64860391,127.0468901
심석초등학교,초등학교,경기도 남양주시 화도읍 마석우리 215-1,37.65755225,127.3070509
화접초등학교,초등학교,경기도 남양주시 별내동 1075,37.65305464,127.115982
보산초등학교,초등학교,경기도 동두천시 생연동 160-14,37.91489622,127.0640834
동두천초등학교,초등학교,경기도 동두천시 생연동 469-2,37.90777377,127.0595529
동보초등학교,초등학교,경기도 동두천시 동두천동 213,37.92439613,127.0521112
소요초등학교,초등학교,경기도 동두천시 상봉암동 237-2 237-2,37.94833601,127.054421
도수초등학교,초등학교,경기도 광주시 퇴촌면 도수리 605-1,37.47187879,127.3173106
신장초등학교,초등학교,경기도 하남시 신장동 422-10,37.54235752,127.2076246
고골초등학교,초등학교,경기도 하남시 하사창동 263-1,37.51838218,127.1974728
수동초등학교,초등학교,경기도 남양주시 수동면 입석리 458-1,37.71181119,127.3231467
조안초등학교,초등학교,경기도 남양주시 조안면 조안리 47,37.54660642,127.3004788
남양주송촌초등학교,초등학교,경기도 남양주시 조안면 송촌리 692,37.56739237,127.3187364
삼성초등학교,초등학교,경기도 파주시 탄현면 금승리 491,37.82556623,126.7327566
근화여자중학교,중학교,경상북도 경주시 용강동 870,35.87183578,129.2270037
안강중학교,중학교,경상북도 경주시 안강읍 안강리 233-7,35.99284494,129.2305253
가람중학교,중학교,부산광역시 북구 구포동 1020-1,35.20368593,128.9983992
회천초등학교,초등학교,경기도 양주시 고암동 122-1,37.83230444,127.0697191
양주덕현초등학교,초등학교,경기도 양주시 고읍동 80-2,37.79904978,127.0807505
장성초등학교,초등학교,경기도 고양시 일산서구 대화동 2210,37.67778006,126.7500319
장촌초등학교,초등학교,경기도 고양시 일산서구 대화동 2269,37.67292546,126.7485036
덕이초등학교,초등학교,경기도 고양시 일산서구 덕이동 528,37.69275571,126.7484201
백송초등학교,초등학교,경기도 고양시 일산서구 덕이동 350-1,37.7014667,126.7533654
한산초등학교,초등학교,경기도 고양시 일산서구 덕이동 1614 한산초등학교,37.69549661,126.7537034
한뫼초등학교,초등학교,경기도 고양시 일산서구 일산동 960-9,37.68633439,126.766668
고양신일초등학교,초등학교,경기도 고양시 일산서구 일산동 1075,37.67917619,126.7705841
호곡초등학교,초등학교,경기도 고양시 일산서구 탄현동 117-1,37.70119285,126.766751
원당초등학교,초등학교,경기도 고양시 덕양구 주교동 313-8,37.66197479,126.8353575
초계초등학교,초등학교,경상남도 합천군 초계면 초계리 87-2,35.55981405,128.2643807
가산초등학교,초등학교,경상남도 합천군 가야면 사촌리 166,35.74965008,128.1276479
용두초등학교,초등학교,경기도 고양시 덕양구 용두동 14,37.6213183,126.8932079
송포초등학교,초등학교,경기도 고양시 일산서구 가좌동 355-1,37.68561456,126.7210354
봉강초등학교,초등학교,전라남도 광양시 봉강면 봉당리 468-2,35.01222446,127.5812821
인천인동초등학교,초등학교,인천광역시 남동구 만수동 846,37.46258155,126.7223649
덕이고등학교,고등학교,경기도 고양시 일산서구 덕이동 381-16,37.69562303,126.7548512
서정고등학교,고등학교,경기도 고양시 덕양구 행신동 1065,37.62107852,126.849446
안곡고등학교,고등학교,경기도 고양시 일산동구 중산동 1718,37.68200197,126.786806
사직여자중학교,중학교,부산광역시 동래구 사직동 977-5,35.19389801,129.0553468
가좌초등학교,초등학교,경상남도 진주시 가좌동 564,35.14947806,128.1034672
가례초등학교,초등학교,경상남도 의령군 가례면 수성리 199-2,35.33309509,128.2465646
간재울중학교,중학교,인천광역시 서구 검암동 619-4,37.56263329,126.6766528
대전동서초등학교,초등학교,대전광역시 동구 삼성동 477,36.34093513,127.4223355
가야곡초등학교,초등학교,충청남도 논산시 가야곡면 강청리 343-14,36.14345003,127.1679279
문경공업고등학교,고등학교,경상북도 문경시 점촌동 5-2,36.59424819,128.2066286
봉양정보고등학교,고등학교,경상북도 의성군 봉양면 화전리 75-1,36.30304647,128.5848745
서울금천초등학교,초등학교,서울특별시 금천구 시흥동 216,37.45464753,126.9125446
봉산초등학교,초등학교,전라남도 담양군 봉산면 신학리 131,35.27689093,126.9570016
한일여자중학교,중학교,경상북도 김천시 교동 527-1,36.13786056,128.0960797
인천효성서초등학교,초등학교,인천광역시 계양구 효성동 623-26,37.52827211,126.6989022
서울강서초등학교,초등학교,서울특별시 양천구 신월동 441,37.522293,126.8405408
가북초등학교,초등학교,경상남도 거창군 가북면 우혜리 1891-3,35.76276747,127.9926329
강남중학교,중학교,서울특별시 동작구 대방동 390-6,37.50246154,126.9224055
예하초등학교,초등학교,경상남도 진주시 정촌면 예하리 756-1,35.12294513,128.0939336
신탄중앙중학교,중학교,대전광역시 대덕구 덕암동 19-1,36.4420803,127.4226344
금산초등학교,초등학교,경상남도 진주시 금산면 중천리 251,35.21498662,128.1441179
오류고등학교,고등학교,서울특별시 구로구 궁동 110-1,37.50026298,126.828196
한국문화영상고등학교,고등학교,경기도 동두천시 생연동 산 43-2,37.90589299,127.0603992
수원초등학교,초등학교,제주특별자치도 제주시 한림읍 대림리 1591,33.42548192,126.2701957
등촌중학교,중학교,서울특별시 강서구 등촌동 534-9,37.5519498,126.8597979
예당초등학교,초등학교,전라남도 보성군 득량면 예당리 369,34.7786135,127.1957652
솔뫼중학교,중학교,경기도 의정부시 용현동 196,37.73048212,127.0830258
호원중학교,중학교,경기도 의정부시 호원동 284-5,37.71876864,127.0454892
효자중학교,중학교,경기도 의정부시 신곡동 768-2,37.75246668,127.0771944
옥천여자중학교,중학교,충청북도 옥천군 옥천읍 문정리 455-2,36.30424897,127.5720233
안내중학교,중학교,충청북도 옥천군 안내면 인포리 289,36.37669292,127.6531548
구례중학교,중학교,전라남도 구례군 구례읍 봉서리 1093,35.20128878,127.4632144
내정초등학교,초등학교,경기도 성남시 분당구 수내동 57,37.37281803,127.1221656
구례여자중학교,중학교,전라남도 구례군 구례읍 봉남리 106,35.20581574,127.463624
고흥여자중학교,중학교,전라남도 고흥군 고흥읍 남계리 429,34.61074702,127.2886151
고흥점암중앙중학교,중학교,전라남도 고흥군 점암면 모룡리 489,34.65062275,127.3836631
충북대학교사범대학부설고등학교,고등학교,충청북도 청주시 흥덕구 가경동 176-9,36.62332251,127.4388228
태장초등학교,초등학교,경기도 수원시 영통구 망포동 371,37.2407422,127.0544254
안산원곡초등학교,초등학교,경기도 안산시 단원구 원곡동 821,37.32910831,126.7958979
연신중학교,중학교,서울특별시 은평구 불광동 400-4,37.623292,126.9250764
부일여자중학교,중학교,인천광역시 부평구 부평동 677,37.48425295,126.7200063
경주마케팅고등학교,고등학교,경상북도 경주시 산내면 의곡리 70-65,35.75217457,129.0463034
반송초등학교,초등학교,경상남도 창원시 성산구 반림동 7,35.23723901,128.6709101
팔달중학교,중학교,대구광역시 북구 팔달동 74-3,35.89886619,128.5448986
간석여자중학교,중학교,인천광역시 남동구 간석동 80-1,37.46827533,126.7106697
구월여자중학교,중학교,인천광역시 남동구 구월동 1409-1,37.44847163,126.7033469
부평서여자중학교,중학교,인천광역시 부평구 십정동 186-519,37.48608611,126.7054793
인천석천초등학교,초등학교,인천광역시 남동구 구월동 21,37.45614291,126.709431
인천논곡초등학교,초등학교,인천광역시 남동구 논현동 563-5,37.4104236,126.7102037
신남초등학교,초등학교,부산광역시 사하구 신평동 667-1,35.09880893,128.9618865
대구성산초등학교,초등학교,대구광역시 달서구 용산동 419-4,35.85772748,128.5187797
용유중학교,중학교,인천광역시 중구 남북동 584-2,37.44803141,126.4129581
송도중학교,중학교,인천광역시 중구 답동 36,37.46866452,126.6291012
김천생명과학고등학교,고등학교,경상북도 김천시 교동 581,36.13656947,128.1007648
대구용전초등학교,초등학교,대구광역시 달서구 용산동 913,35.86101787,128.5311739
토월초등학교,초등학교,경상남도 창원시 성산구 사파동 13,35.22717267,128.6990254
태광고등학교,고등학교,경기도 평택시 신장동 263-6,37.07375795,127.0521805
만수중학교,중학교,인천광역시 남동구 만수동 48,37.45458205,126.7367871
구례중앙초등학교,초등학교,전라남도 구례군 구례읍 봉남리 32-1,35.20442565,127.4652366
청천중학교,중학교,인천광역시 부평구 청천동 190-58,37.51108172,126.704754
한마음초등학교,초등학교,제주특별자치도 서귀포시 표선면 하천리 1794-1,33.35190018,126.8150955
가마초등학교,초등학교,제주특별자치도 서귀포시 표선면 세화리 1538-3,33.30538591,126.7996074
가파초등학교,초등학교,제주특별자치도 서귀포시 대정읍 가파리 464,33.16917085,126.270443
인천남중학교,중학교,인천광역시 미추홀구 숭의동 41-3,37.46428064,126.6545694
장평중학교,중학교,서울특별시 동대문구 장안동 352,37.56628351,127.0705294
일신초등학교,초등학교,광주광역시 북구 일곡동 814-5,35.21112602,126.8948983
고현초등학교,초등학교,경기도 수원시 권선구 고색동 280,37.24897065,126.9879896
조원초등학교,초등학교,경기도 수원시 장안구 조원동 390,37.30299696,127.0166579
문원초등학교,초등학교,경기도 과천시 별양동 16 문원초등학교,37.42380051,126.9950274
관문초등학교,초등학교,경기도 과천시 부림동 48,37.43385021,127.0013615
인천개흥초등학교,초등학교,인천광역시 부평구 부평동 905,37.50488638,126.7283405
인천굴포초등학교,초등학교,인천광역시 부평구 삼산동 454-1,37.51079992,126.7370063
한일초등학교,초등학교,인천광역시 부평구 산곡동 179-79,37.50541656,126.6926822
이화여자대학교사범대학부속초등학교,초등학교,서울특별시 서대문구 대신동 20,37.56099648,126.9427504
인천능허대초등학교,초등학교,인천광역시 연수구 옥련동 442-1,37.42358698,126.6487672
문흥중학교,중학교,광주광역시 북구 문흥동 1008-1,35.18595678,126.9178094
각화중학교,중학교,광주광역시 북구 각화동 231,35.18125387,126.9377753
흑산초등학교홍도분교장,초등학교,전라남도 신안군 흑산면 홍도리 95-2,34.6855372,125.1923585
가은중학교,중학교,경상북도 문경시 가은읍 왕능리 218,36.64449516,128.071426
해운대중학교,중학교,부산광역시 해운대구 우동 278-13,35.17179105,129.1616477
용원초등학교,초등학교,경상남도 창원시 진해구 용원동 1251,35.09769735,128.8177002
안청초등학교,초등학교,경상남도 창원시 진해구 안골동 369,35.0996455,128.8067952
대구신당초등학교,초등학교,대구광역시 달서구 신당동 1844-2,35.85297315,128.4962674
황상초등학교,초등학교,경상북도 구미시 황상동 176,36.11868882,128.4274177
보라초등학교,초등학교,경기도 용인시 기흥구 상갈동 51-1,37.26346748,127.1072221
인천신대초등학교,초등학교,인천광역시 계양구 용종동 228-4,37.5391572,126.7439514
인천양촌초등학교,초등학교,인천광역시 계양구 병방동 3,37.5506269,126.7439175
부구초등학교삼당분교장,초등학교,경상북도 울진군 북면 하당리 287,37.04058746,129.3216454
저동초등학교,초등학교,경상북도 울릉군 울릉읍 저동리 440,37.49944701,130.9021359
동주초등학교,초등학교,충청북도 청주시 상당구 금천동 323,36.63013305,127.5099212
관양초등학교,초등학교,경기도 안양시 동안구 관양동 1407,37.40661667,126.9603142
용수초등학교,초등학교,부산광역시 북구 화명동 2305,35.22881779,129.0089926
가락초등학교,초등학교,부산광역시 강서구 죽림동 623-2,35.19589784,128.8959776
전주중인초등학교,초등학교,전라북도 전주시 완산구 중인동 585-1,35.77093781,127.0970577
가천초등학교,초등학교,전라북도 완주군 경천면 가천리 351,36.03246932,127.2633608
비산초등학교,초등학교,경기도 안양시 동안구 비산동 315-1,37.40511809,126.9438943
대구장동초등학교,초등학교,대구광역시 달서구 장기동 533-4,35.84458713,128.5317629
진안초등학교,초등학교,전라북도 진안군 진안읍 군하리 129,35.79083538,127.4233543
석수초등학교,초등학교,경기도 안양시 만안구 석수동 655-77,37.40573873,126.9009048
축산항초등학교경정분교장,초등학교,경상북도 영덕군 축산면 경정리 234,36.48598059,129.4331727
화잠초등학교,초등학교,부산광역시 북구 화명동 732-1,35.2359298,129.0173597
각남초등학교,초등학교,경상북도 청도군 각남면 예리리 498,35.6425645,128.6569887
약수초등학교,초등학교,전라남도 장성군 북하면 약수리 406,35.40826513,126.8803713
샘모루초등학교,초등학교,경기도 안양시 동안구 비산동 405,37.3996207,126.940925
산이서초등학교,초등학교,전라남도 해남군 산이면 상공리 231-4,34.6768468,126.4108074
지석초등학교,초등학교,경기도 용인시 기흥구 상하동 435-8,37.26969298,127.1387529
성지초등학교,초등학교,경기도 용인시 기흥구 구갈동 575,37.27452824,127.1283918
기흥초등학교,초등학교,경기도 용인시 기흥구 공세동 198-1,37.2321997,127.109664
공세초등학교,초등학교,경기도 용인시 기흥구 공세동 693,37.23933213,127.1166108
갈곡초등학교,초등학교,경기도 용인시 기흥구 구갈동 601,37.27116237,127.1338878
가야초등학교,초등학교,부산광역시 부산진구 가야동 272,35.15328554,129.035646
남신초등학교,초등학교,충청북도 음성군 음성읍 읍내리 757-6,36.93226181,127.684756
맹동초등학교,초등학교,충청북도 음성군 맹동면 쌍정리 94,36.9272378,127.5633022
대구종로초등학교,초등학교,대구광역시 중구 서문로1가 1-5,35.87228042,128.5897691
각골초등학교,초등학교,경기도 안산시 상록구 본오동 728-6,37.29261701,126.8733488
반월초등학교,초등학교,경기도 안산시 상록구 건건동 629,37.30537207,126.9013972
연무고등학교,고등학교,충청남도 논산시 연무읍 동산리 879,36.13452542,127.1038199
원중초등학교,초등학교,경기도 고양시 일산동구 식사동 1571,37.67501416,126.8144837
양일초등학교,초등학교,경기도 고양시 일산동구 식사동 1477,37.68551923,126.8132189
율동초등학교,초등학교,경기도 고양시 일산동구 정발산동 1117,37.67525524,126.7791167
대영중학교,중학교,경상북도 영주시 휴천동 1770,36.80734533,128.6320065
고봉초등학교,초등학교,경기도 고양시 일산동구 중산동 1554-1,37.69630757,126.7821963
호수초등학교,초등학교,경기도 고양시 일산동구 장항동 880,37.64686528,126.7783346
황룡초등학교,초등학교,경기도 고양시 일산서구 탄현동 1474,37.69808146,126.7681972
상탄초등학교,초등학교,경기도 고양시 일산서구 탄현동 1483,37.6947822,126.7668553
현산초등학교,초등학교,경기도 고양시 일산서구 탄현동 1586,37.69238819,126.7711397
오마초등학교,초등학교,경기도 고양시 일산서구 주엽동 33,37.67669763,126.7627464
문화초등학교,초등학교,경기도 고양시 일산서구 주엽동 37,37.67464048,126.7676436
강선초등학교,초등학교,경기도 고양시 일산서구 주엽동 64,37.67106353,126.7650616
안산화정초등학교,초등학교,경기도 안산시 단원구 선부동 1100,37.34556745,126.8174005
서울신답초등학교,초등학교,서울특별시 동대문구 답십리동 463-13,37.57300059,127.0433994
서울윤중초등학교,초등학교,서울특별시 영등포구 여의도동 38,37.51991461,126.9230217
단남초등학교,초등학교,경기도 성남시 중원구 금광동 210,37.44259189,127.1611885
가야곡중학교,중학교,충청남도 논산시 가야곡면 강청리 343-14,36.14382614,127.1688294
성의고등학교,고등학교,경상북도 김천시 지좌동 621,36.11478535,128.1385662
조현초등학교,초등학교,경기도 양평군 용문면 조현리 174-1,37.52252636,127.6161339
양평단월초등학교,초등학교,경기도 양평군 단월면 보룡리 693-1,37.53932407,127.6726809
화성화수초등학교,초등학교,경기도 화성시 우정읍 화수리 834-13,37.10870182,126.7972114
영산포여자중학교,중학교,전라남도 나주시 이창동 136,34.99680915,126.7117173
영산중학교,중학교,전라남도 나주시 삼영동 17,35.00794935,126.7143156
고정초등학교,초등학교,경기도 화성시 송산면 고정리 1103,37.23809013,126.738112
동해삼육고등학교,고등학교,강원도 동해시 천곡동 566-3,37.52207648,129.1003582
대구들안길초등학교,초등학교,대구광역시 수성구 두산동 28-2,35.83889748,128.618547
곡선초등학교,초등학교,경기도 수원시 권선구 권선동 1199,37.25056181,127.0250361
봉화고등학교,고등학교,경상북도 봉화군 봉화읍 삼계리 40,36.89574087,128.7397449
죽변고등학교,고등학교,경상북도 울진군 죽변면 죽변리 215,37.06489719,129.4198891
소가야중학교,중학교,경상남도 고성군 삼산면 삼봉리 산 76-2,34.95460248,128.2498367
오포초등학교,초등학교,경기도 광주시 오포읍 추자리 500,37.36092559,127.2153833
발곡초등학교,초등학교,경기도 의정부시 신곡동 727-3,37.72805474,127.0630558
오동초등학교,초등학교,경기도 의정부시 민락동 735-6,37.74266834,127.0905799
의순초등학교,초등학교,경기도 의정부시 금오동 469-3,37.75074755,127.0659702
가능초등학교,초등학교,경기도 의정부시 가능동 724-3,37.7460803,127.0357211
포항여자전자고등학교,고등학교,경상북도 포항시 북구 용흥동 430,36.05014368,129.3490602
인천갈산초등학교,초등학교,인천광역시 부평구 갈산동 360-1,37.51224804,126.7283628
인천후정초등학교,초등학교,인천광역시 부평구 삼산동 390-1,37.52274447,126.7434796
인천영선초등학교,초등학교,인천광역시 부평구 삼산동 438-7,37.51527046,126.7346121
중앙초등학교,초등학교,충청북도 청주시 청원구 율량동 2105,36.66715044,127.5012945
서울중현초등학교,초등학교,서울특별시 노원구 하계동 272-2,37.6321062,127.0665372
가남초등학교,초등학교,부산광역시 부산진구 가야동 12,35.15405498,129.0442979
인천미산초등학교,초등학교,인천광역시 부평구 산곡동 128-60,37.50457911,126.7099557
가평초등학교,초등학교,부산광역시 부산진구 가야동 649-19,35.14885285,129.0249932
가산초등학교,초등학교,부산광역시 부산진구 가야동 464-99,35.14697389,129.0368391
가정중학교,중학교,강원도 춘천시 남면 가정리 838-1,37.73687209,127.577303
가락초등학교,초등학교,세종특별자치시 고운동 1366,36.51540612,127.2306961
브니엘여자고등학교,고등학교,부산광역시 금정구 구서동 50-1,35.25479953,129.1035365
녹양초등학교,초등학교,경기도 의정부시 녹양동 398 녹양초등학교,37.76336098,127.0367228
묵호초등학교,초등학교,강원도 동해시 발한동 318,37.55230105,129.1025647
천천중학교,중학교,경기도 수원시 장안구 천천동 510,37.30002315,126.981025
백운중학교,중학교,경기도 의왕시 포일동 170-1,37.39057316,126.9899193
광탄중학교,중학교,경기도 파주시 광탄면 신산리 232,37.78275236,126.8488722
신흥중학교,중학교,경기도 동두천시 안흥동 36 36,37.93028694,127.0473982
동두천여자중학교,중학교,경기도 동두천시 생연동 산 43,37.90645213,127.0603822
회천중학교,중학교,경기도 양주시 고암동 122-2,37.83235414,127.0708618
고색중학교,중학교,경기도 수원시 권선구 고색동 888-92,37.25357589,126.9810819
영동중학교,중학교,경기도 수원시 영통구 신동 330-1,37.24766086,127.0558364
